name,full_location_name,country,country_clean,state_province,region_detail,latitude,longitude,timezone,skill_level_min,skill_level_max,primary_airport_iata,region_major,slug,active,nearest_city,nearest_city_distance_km,hotellook_city_id,hotellook_city_name,hotellook_city_distance_km
's-Gravenzande,'s-Gravenzande,Netherlands,Netherlands,,,52.0115007,4.142832756,UTC,beginner,intermediate,RTM,Europe,s-gravenzande-netherlands,TRUE,'s-Gravenzande,0,1419952,S-Gravenzande,2.1
't Zwin,'t Zwin,Belgium,Belgium,,,51.37092307,3.362846375,UTC,beginner,intermediate,OST,Europe,t-zwin-belgium,TRUE,Knokke-Heist,0,2387,Knokke-Heist,7.1
11th Ave Melkbos Strand,"11th Ave Melkbos Strand, SW Coast","South Africa, SW Coast",South Africa,,SW Coast,-33.67178278,18.40759277,Africa/Johannesburg,intermediate,advanced,CPT,Africa,11th-ave-melkbos-strand-sw-coast-south-africa,TRUE,,,,,
13th ave south surfside,"13th ave south surfside, South East, South Carolina","USA, South East, South Carolina",USA,South East,South Carolina,33.59517506,-78.98088455,America/Los_Angeles,beginner,intermediate,MYR,North America,13th-ave-south-surfside-south-east-south-carolina-usa,TRUE,Surfside Beach,0,22011,Surfside Beach,1.4
13th beach,"13th beach, VIC, Melbourne West","Australia, VIC, Melbourne West",Australia,VIC,Melbourne West,-38.28535548,144.4616318,Australia/Sydney,beginner,intermediate,AVV,Oceania,13th-beach-vic-melbourne-west-australia,TRUE,City of Greater Geelong,0,5286,Geelong,17.7
13th Street,"13th Street, South East, North Florida","USA, South East, North Florida",USA,South East,North Florida,28.29555765,-80.60898542,America/Los_Angeles,beginner,intermediate,COF,North America,13th-street-south-east-north-florida-usa,TRUE,Cocoa Beach,0,17772,Cocoa Beach,2.7
14th km.,"14th km., South","Morocco, South",Morocco,,South,30.50612172,-9.685896635,Africa/Casablanca,intermediate,advanced,AGA,Africa,14th-km-south-morocco,TRUE,Aourir,0,1511442,Aourir,5.1
15th St.,"15th St., California, San Diego County","USA, California, San Diego County",USA,California,San Diego County,32.95880562,-117.2696114,America/Los_Angeles,intermediate,advanced,NKX,North America,15th-st-california-san-diego-county-usa,TRUE,Del Mar,0,17093,Del Mar,0.4
16 MILE BEACH,"16 MILE BEACH, West Coast","South Africa, West Coast",South Africa,,West Coast,-33.3590115,18.15466046,Africa/Johannesburg,intermediate,advanced,SDB,Africa,16-mile-beach-west-coast-south-africa,TRUE,,,,,
17th Ave,"17th Ave, Gulf Coast, Florida","USA, Gulf Coast, Florida",USA,Gulf Coast,Florida,30.33508352,-87.11486578,America/Los_Angeles,beginner,intermediate,PNS,North America,17th-ave-gulf-coast-florida-usa,TRUE,Escambia County,0,,,
17th Ave,"17th Ave, Gulf Coast, Florida","USA, Gulf Coast, Florida",USA,Gulf Coast,Florida,30.33508352,-87.11486578,America/Los_Angeles,beginner,intermediate,PNS,North America,17th-ave-gulf-coast-florida-usa-2,TRUE,Escambia County,0,,,
17th Street,"17th Street, California, Orange County","USA, California, Orange County",USA,California,Orange County,33.66342499,-118.0143213,America/Los_Angeles,intermediate,advanced,SNA,North America,17th-street-california-orange-county-usa,TRUE,Huntington Beach,0,17172,Huntington Beach,1.4
1st beach,"1st beach, North East, Southern New England","USA, North East, Southern New England",USA,North East,Southern New England,41.48721845,-71.29152775,America/Los_Angeles,beginner,intermediate,NPT,North America,1st-beach-north-east-southern-new-england-usa,TRUE,Newport County,0,21919,Newport,1.8
1st Street Jetty,"1st Street Jetty, North East, Virginia","USA, North East, Virginia",USA,North East,Virginia,36.83041288,-75.96777141,America/Los_Angeles,beginner,intermediate,NTU,North America,1st-street-jetty-north-east-virginia-usa,TRUE,Virginia Beach,0,22798,Virginia Beach,2.7
20-20s,"20-20s, East Java","Indonesia, East Java",Indonesia,,East Java,-8.707180456,114.3744779,Asia/Jakarta,intermediate,advanced,BWX,Asia,20-20s-east-java-indonesia,TRUE,,,,,
29th Street,"29th Street, West Coast","Canada, West Coast",Canada,,West Coast,49.33496497,-123.1947291,UTC,beginner,intermediate,CXH,North America,29th-street-west-coast-canada,TRUE,West Vancouver,0,1522791,West Vancouver,3.9
2nd Avenue Pier,"2nd Avenue Pier, South East, South Carolina","USA, South East, South Carolina",USA,South East,South Carolina,33.68349661,-78.8856554,America/Los_Angeles,beginner,intermediate,MYR,North America,2nd-avenue-pier-south-east-south-carolina-usa,TRUE,Myrtle Beach,0,21988,Myrtle Beach,0.6
2nd Beach,"2nd Beach, North East, Southern New England","USA, North East, Southern New England",USA,North East,Southern New England,41.48774889,-71.25841856,America/Los_Angeles,beginner,intermediate,NPT,North America,2nd-beach-north-east-southern-new-england-usa,TRUE,Middletown,0,21917,Middletown,7.0
2nd corner,"2nd corner, NSW, Mid North Coast","Australia, NSW, Mid North Coast",Australia,NSW,Mid North Coast,-31.96674459,152.5974369,Australia/Sydney,intermediate,advanced,TRO,Oceania,2nd-corner-nsw-mid-north-coast-australia,TRUE,,,,,
2nd Light,"2nd Light, South East, North Florida","USA, South East, North Florida",USA,South East,North Florida,28.25273573,-80.60333133,America/Los_Angeles,beginner,intermediate,COF,North America,2nd-light-south-east-north-florida-usa,TRUE,Brevard County,0,,,
2nds,"2nds, WA, Perth City","Australia, WA, Perth City",Australia,WA,Perth City,-31.84558721,115.7501882,Australia/Sydney,intermediate,advanced,JFM,Oceania,2nds-wa-perth-city-australia,TRUE,Perth,0,5536,Perth,12.5
3 emes,"3 emes, Baja Norte","Mexico, Baja Norte",Mexico,,Baja Norte,31.89725742,-116.7137128,America/Mexico_City,intermediate,advanced,ESE,North America,3-emes-baja-norte-mexico,TRUE,Ensenada,0,4408,Ensenada,9.8
3 Mile,"3 Mile, California, Santa Cruz","USA, California, Santa Cruz",USA,California,Santa Cruz,36.9615002,-122.1173286,America/Los_Angeles,intermediate,advanced,WVI,North America,3-mile-california-santa-cruz-usa,TRUE,Santa Cruz County,0,17392,Santa Cruz,7.8
3 way,"3 way, NSW, South Coast","Australia, NSW, South Coast",Australia,NSW,South Coast,-35.24670559,150.5426502,Australia/Sydney,intermediate,advanced,NOA,Oceania,3-way-nsw-south-coast-australia,TRUE,,,,,
3-poles reef,"3-poles reef, SA, York Peninsula","Australia, SA, York Peninsula",Australia,SA,York Peninsula,-35.17761434,138.4667552,Australia/Sydney,advanced,advanced,ADL,Oceania,3-poles-reef-sa-york-peninsula-australia,TRUE,Adelaide,0,5052,Adelaide,29.7
"35th Street, IOP","35th Street, IOP, South East, South Carolina","USA, South East, South Carolina",USA,South East,South Carolina,32.79524749,-79.76688981,America/Los_Angeles,beginner,intermediate,CHS,North America,35th-street-iop-south-east-south-carolina-usa,TRUE,Isle of Palms,0,21971,Isle of Palms,2.8
36th street,"36th street, California, Orange County","USA, California, Orange County",USA,California,Orange County,33.61515538,-117.9372239,America/Los_Angeles,intermediate,advanced,SNA,North America,36th-street-california-orange-county-usa,TRUE,Newport Beach,0,17283,Newport Beach,0.9
36th Street,"36th Street, North East, New Jersey","USA, North East, New Jersey",USA,North East,New Jersey,39.15717812,-74.68589544,America/Los_Angeles,beginner,intermediate,WWD,North America,36th-street-north-east-new-jersey-usa,TRUE,Sea Isle City,0,,,
38th Parallel,38th Parallel,South Korea,South Korea,,,38.00606673,128.7326592,UTC,intermediate,advanced,YNY,Other,38th-parallel-south-korea,TRUE,Hyeonbuk,0,5791,Sokcho,25.7
38th St. Beach,"38th St. Beach, North East, New Jersey","USA, North East, New Jersey",USA,North East,New Jersey,39.38791729,-74.38632488,America/Los_Angeles,beginner,intermediate,ACY,North America,38th-st-beach-north-east-new-jersey-usa,TRUE,Brigantine,0,20357,Brigantine,3.1
3de Steen,"3de Steen, Cape Town","South Africa, Cape Town",South Africa,,Cape Town,-33.77276204,18.44432831,Africa/Johannesburg,intermediate,advanced,CPT,Africa,3de-steen-cape-town-south-africa,TRUE,Cape Town,0,678,Cape Town,17.1
3rd Groyne,"3rd Groyne, WA, Perth City","Australia, WA, Perth City",Australia,WA,Perth City,-31.83367008,115.7469052,Australia/Sydney,intermediate,advanced,JFM,Oceania,3rd-groyne-wa-perth-city-australia,TRUE,,,,,
4 Bobs,"4 Bobs, Mentawai","Indonesia, Mentawai",Indonesia,,Mentawai,-1.90912196,99.31065559,Asia/Jakarta,advanced,advanced,RKI,Asia,4-bobs-mentawai-indonesia,TRUE,,,,,
4 Mile,"4 Mile, California, Santa Cruz","USA, California, Santa Cruz",USA,California,Santa Cruz,36.96556358,-122.1250534,America/Los_Angeles,intermediate,advanced,WVI,North America,4-mile-california-santa-cruz-usa,TRUE,Santa Cruz County,0,17392,Santa Cruz,7.8
4 Miles,"4 Miles, Hawaii, Hawaii Island","USA, Hawaii, Hawaii Island",USA,Hawaii,Hawaii Island,19.73519884,-155.0279903,America/Los_Angeles,intermediate,advanced,ITO,North America,4-miles-hawaii-hawaii-island-usa,TRUE,Hilo,0,24981,Hilo,6.5
40th Street,"40th Street, California, Orange County","USA, California, Orange County",USA,California,Orange County,33.61729968,-117.9388976,America/Los_Angeles,intermediate,advanced,SNA,North America,40th-street-california-orange-county-usa,TRUE,Newport Beach,0,17283,Newport Beach,0.9
411 (quatro-once),411 (quatro-once),Panama,Panama,,,7.238515812,-80.51965177,UTC,intermediate,advanced,PDM,Central America,411-quatro-once-panama,TRUE,,,,,
42nd St. VA Beach,"42nd St. VA Beach, North East, Virginia","USA, North East, Virginia",USA,North East,Virginia,36.87093515,-75.98200321,America/Los_Angeles,beginner,intermediate,NTU,North America,42nd-st-va-beach-north-east-virginia-usa,TRUE,Virginia Beach,0,22798,Virginia Beach,2.7
46°,"46°, Mainland","Italy, Mainland",Italy,,Mainland,43.6387928,10.28497338,UTC,intermediate,advanced,PSA,Europe,46-mainland-italy,TRUE,,,,,
48th st. Myrtle Beach,"48th st. Myrtle Beach, South East, South Carolina","USA, South East, South Carolina",USA,South East,South Carolina,33.72065869,-78.84473026,America/Los_Angeles,beginner,intermediate,MYR,North America,48th-st-myrtle-beach-south-east-south-carolina-usa,TRUE,Myrtle Beach,0,21988,Myrtle Beach,0.6
48th Street (Ocean City),"48th Street (Ocean City), North East, Virginia","USA, North East, Virginia",USA,North East,Virginia,38.37323043,-75.06695151,America/Los_Angeles,beginner,intermediate,OCE,North America,48th-street-ocean-city-north-east-virginia-usa,TRUE,Worcester County,0,,,
4th groyne,"4th groyne, WA, Perth South","Australia, WA, Perth South",Australia,WA,Perth South,-32.50474921,115.7354844,Australia/Sydney,intermediate,advanced,JAD,Oceania,4th-groyne-wa-perth-south-australia,TRUE,City of Mandurah,0,5413,Mandurah,6.0
5 1 2km  &  8 1 2km,5 1 2km  &  8 1 2km,Ecuador,Ecuador,,,-2.731213362,-80.24688721,UTC,intermediate,advanced,GYE,Other,5-1-2km-8-1-2km-ecuador,TRUE,Posorja,0,1513317,Cuatro Hermanas,71.8
5 rocks,"5 rocks, Okinawa","Japan, Okinawa",Japan,,Okinawa,26.33154728,127.7418512,UTC,intermediate,advanced,DNA,Asia,5-rocks-okinawa-japan,TRUE,Chatan,0,25713,Naha,14.6
56th St.,"56th St., California, Orange County","USA, California, Orange County",USA,California,Orange County,33.62322304,-117.9451847,America/Los_Angeles,intermediate,advanced,SNA,North America,56th-st-california-orange-county-usa,TRUE,Newport Beach,0,17283,Newport Beach,0.9
57th Street,"57th Street, North East, New Jersey","USA, North East, New Jersey",USA,North East,New Jersey,39.2215568,-74.63570595,America/Los_Angeles,beginner,intermediate,ACY,North America,57th-street-north-east-new-jersey-usa,TRUE,Ocean City,0,20462,Ocean City,8.2
58th Street,"58th Street, North East, New Jersey","USA, North East, New Jersey",USA,North East,New Jersey,39.62155714,-74.19307709,America/Los_Angeles,beginner,intermediate,MJX,North America,58th-street-north-east-new-jersey-usa,TRUE,Long Beach Township,0,,,
5th Street Beach Haven,"5th Street Beach Haven, North East, New Jersey","USA, North East, New Jersey",USA,North East,New Jersey,39.5644284,-74.23316002,America/Los_Angeles,beginner,intermediate,ACY,North America,5th-street-beach-haven-north-east-new-jersey-usa,TRUE,Beach Haven,0,20344,Beach Haven,1.0
6 pillars,"6 pillars, South East Port Elizabeth","South Africa, South East Port Elizabeth",South Africa,,South East Port Elizabeth,-33.97844752,25.6558764,Africa/Johannesburg,intermediate,advanced,PLZ,Africa,6-pillars-south-east-port-elizabeth-south-africa,TRUE,Gqeberha,0,,,
7 olas,"7 olas, Caribbean","Colombia, Caribbean",Colombia,,Caribbean,11.3203742,-74.09847021,UTC,intermediate,advanced,SMR,Other,7-olas-caribbean-colombia,TRUE,Santa Marta,0,6249,Santa Marta,14.1
7 rocks,"7 rocks, Mindanao","Philippines, Mindanao",Philippines,,Mindanao,9.24427867,126.0914612,UTC,beginner,intermediate,TDG,Asia,7-rocks-mindanao-philippines,TRUE,,,,,
7th Avenue,"7th Avenue, South East, North Florida","USA, South East, North Florida",USA,South East,North Florida,30.29619343,-81.38904154,America/Los_Angeles,beginner,intermediate,NRB,North America,7th-avenue-south-east-north-florida-usa,TRUE,Jacksonville Beach,0,17840,Jacksonville Beach,0.4
81st Street,"81st Street, North East, Virginia","USA, North East, Virginia",USA,North East,Virginia,36.90679489,-75.9891808,America/Los_Angeles,beginner,intermediate,NTU,North America,81st-street-north-east-virginia-usa,TRUE,Virginia Beach,0,22798,Virginia Beach,2.7
8th Ave n.,"8th Ave n., South East, South Carolina","USA, South East, South Carolina",USA,South East,South Carolina,33.77021136,-78.77030969,America/Los_Angeles,beginner,intermediate,CRE,North America,8th-ave-n-south-east-south-carolina-usa,TRUE,Horry County,0,,,
8th street,8th street,Liberia,Liberia,,,6.290342251,-10.78841329,UTC,beginner,intermediate,MLW,Other,8th-street-liberia,TRUE,Monrovia,0,24200,Monrovia,2.9
90 Mile Beach,"90 Mile Beach, New Zealand NI, NW Coast","New Zealand, New Zealand NI, NW Coast",New Zealand,New Zealand NI,NW Coast,-35.03758654,173.153801,Pacific/Auckland,beginner,intermediate,KAT,Oceania,90-mile-beach-new-zealand-ni-nw-coast-new-zealand,TRUE,,,,,
92nd Street,"92nd Street, North East, Long Island NY","USA, North East, Long Island NY",USA,North East,Long Island NY,40.58333064,-73.8120532,America/Los_Angeles,beginner,intermediate,JFK,North America,92nd-street-north-east-long-island-ny-usa,TRUE,New York,0,20857,New York City,24.2
A Lanzada,"A Lanzada, Galicia","Spain, Galicia",Spain,,Galicia,42.45462112,-8.881416321,Europe/Madrid,intermediate,advanced,VGO,Europe,a-lanzada-galicia-spain,TRUE,O Grove,0,3803,O Grove,4.6
A-Bay,"A-Bay, QLD, Sunshine Coast","Australia, QLD, Sunshine Coast",Australia,QLD,Sunshine Coast,-26.38756403,153.1165409,Australia/Sydney,beginner,intermediate,NSV,Oceania,a-bay-qld-sunshine-coast-australia,TRUE,,,,,
A-Beach,"A-Beach, California, San Luis Obispo","USA, California, San Luis Obispo",USA,California,San Luis Obispo,35.40316568,-120.8695543,America/Los_Angeles,beginner,intermediate,SBP,North America,a-beach-california-san-luis-obispo-usa,TRUE,Morro Bay,0,17273,Morro Bay,4.5
Å-land,Å-land,Sweden,Sweden,,,57.33921503,12.06539154,UTC,beginner,intermediate,GOT,Europe,a-land-sweden,TRUE,Kungsbacka kommun,0,1479489,Hono,46.2
A-ver-o-mar,"A-ver-o-mar, North Porto","Portugal, North Porto",Portugal,,North Porto,41.39058989,-8.775200844,Europe/Lisbon,intermediate,advanced,OPO,Europe,a-ver-o-mar-north-porto-portugal,TRUE,,,,,
aaron's,"aaron's, Mentawai","Indonesia, Mentawai",Indonesia,,Mentawai,-2.278461512,99.59393978,Asia/Jakarta,intermediate,advanced,RKI,Asia,aaron-s-mentawai-indonesia,TRUE,,,,,
Ab,"Ab, California, San Diego County","USA, California, San Diego County",USA,California,San Diego County,32.71391277,-117.2569996,America/Los_Angeles,beginner,intermediate,NZY,North America,ab-california-san-diego-county-usa,TRUE,San Diego County,0,1517272,San Diego Country Estates,54.9
Abalolo Reef,"Abalolo Reef, Hawaii, Oahu","USA, Hawaii, Oahu",USA,Hawaii,Oahu,21.30222703,-157.8982222,America/Los_Angeles,intermediate,advanced,HNL,North America,abalolo-reef-hawaii-oahu-usa,TRUE,Waipahu,0,,,
Abalone Cove,"Abalone Cove, California, LA County","USA, California, LA County",USA,California,LA County,33.73777274,-118.3760226,America/Los_Angeles,beginner,intermediate,TOA,North America,abalone-cove-california-la-county-usa,TRUE,Rancho Palos Verdes,0,17341,Rancho Palos Verdes,1.3
Aber wrac'h point,"Aber wrac'h point, Brittany North","France, Brittany North",France,,Brittany North,48.57924766,-4.632797241,Europe/Paris,intermediate,advanced,BES,Europe,aber-wrac-h-point-brittany-north-france,TRUE,,,,,
Aberavon,"Aberavon, South Wales","UK, South Wales",UK,,South Wales,51.58532589,-3.810968399,Europe/London,beginner,intermediate,SWS,Europe,aberavon-south-wales-uk,TRUE,Neath Port Talbot,0,,,
Aberdaron,"Aberdaron, North Wales and NW England","UK, North Wales and NW England",UK,,North Wales and NW England,52.80649733,-4.703521729,Europe/London,beginner,intermediate,VLY,Europe,aberdaron-north-wales-and-nw-england-uk,TRUE,Gwynedd,0,1499853,Gwyddelwern,91.6
Aberdeen,"Aberdeen, East Scotland","UK, East Scotland",UK,,East Scotland,57.16463944,-2.079334259,Europe/London,beginner,intermediate,ABZ,Europe,aberdeen-east-scotland-uk,TRUE,Aberdeen City,0,,,
Aberdeen Area Beach,Aberdeen Area Beach,Sierra Leone,Sierra Leone,,,8.491069736,-13.29088211,UTC,beginner,intermediate,FNA,Other,aberdeen-area-beach-sierra-leone,TRUE,Freetown,0,24354,Freetown,6.7
abersoch,"abersoch, North Wales and NW England","UK, North Wales and NW England",UK,,North Wales and NW England,52.82379766,-4.506797791,Europe/London,beginner,intermediate,VLY,Europe,abersoch-north-wales-and-nw-england-uk,TRUE,Gwynedd,0,1499853,Gwyddelwern,91.6
Aberta-A-Nova,"Aberta-A-Nova, South","Portugal, South",Portugal,,South,38.1761,-8.782158333,Europe/Lisbon,intermediate,advanced,LIS,Europe,aberta-a-nova-south-portugal,TRUE,,,,,
Abrami Beach,"Abrami Beach, Greek Islands","Greece, Greek Islands",Greece,,Greek Islands,37.17329483,25.48014879,UTC,beginner,intermediate,JNX,Other,abrami-beach-greek-islands-greece,TRUE,Naxos Regional Unit,0,30528,Naxos Island,13.4
Abras,"Abras, Fernando do Noronha","Brazil, Fernando do Noronha",Brazil,,Fernando do Noronha,-3.827601809,-32.40058064,America/Sao_Paulo,intermediate,advanced,FEN,South America,abras-fernando-do-noronha-brazil,TRUE,,,,,
Accra Beach - Rockley Beach,Accra Beach - Rockley Beach,Barbados,Barbados,,,13.07267491,-59.59003687,UTC,beginner,intermediate,BGI,Other,accra-beach-rockley-beach-barbados,TRUE,,,,,
Achadas da Cruz,Achadas da Cruz,Madeira,Madeira,,,32.85107424,-17.22008228,UTC,intermediate,advanced,FNC,Other,achadas-da-cruz-madeira,TRUE,,,,,
Acid Drop,"Acid Drop, Fuerte Ventura","Canary, Fuerte Ventura",Canary,,Fuerte Ventura,28.74775223,-13.9338398,UTC,intermediate,advanced,FUE,Other,acid-drop-fuerte-ventura-canary,TRUE,,,,,
Acids,"Acids, NSW, Coal Coast","Australia, NSW, Coal Coast",Australia,NSW,Coal Coast,-34.41176471,150.9035951,Australia/Sydney,intermediate,advanced,WOL,Oceania,acids-nsw-coal-coast-australia,TRUE,,,,,
Acropolis,"Acropolis, Greek Islands","Greece, Greek Islands",Greece,,Greek Islands,36.09625623,28.08538914,UTC,intermediate,advanced,RHO,Other,acropolis-greek-islands-greece,TRUE,Rhodes Regional Unit,0,30528,Naxos Island,13.4
Admirals,"Admirals, East England","UK, East England",UK,,East England,54.48927379,-0.590429306,Europe/London,intermediate,advanced,MME,Europe,admirals-east-england-uk,TRUE,North Yorkshire,0,,,
Adonis,Adonis,Maldives,Maldives,,,2.184028435,73.10043097,UTC,intermediate,advanced,TMF,Asia,adonis-maldives,TRUE,,,,,
Adraga,"Adraga, Central Lisboa","Portugal, Central Lisboa",Portugal,,Central Lisboa,38.80326295,-9.485321045,Europe/Lisbon,intermediate,advanced,CAT,Europe,adraga-central-lisboa-portugal,TRUE,,,,,
Adria,"Adria, Mainland","Italy, Mainland",Italy,,Mainland,42.83333,12.83333,UTC,intermediate,advanced,PEG,Europe,adria-mainland-italy,TRUE,Campello sul Clitunno,0,12548,Campello sul Clitunno,4.9
Affenrucken point,Affenrucken point,Namibia,Namibia,,,-27.93072075,15.67551613,UTC,advanced,advanced,RHN,Other,affenrucken-point-namibia,TRUE,,,,,
Afulu,"Afulu, Sumatra Islands","Indonesia, Sumatra Islands",Indonesia,,Sumatra Islands,1.259721342,97.22986221,Asia/Jakarta,advanced,advanced,GNS,Asia,afulu-sumatra-islands-indonesia,TRUE,North Nias,0,,,
Agamemnon/Kouloura Island,"Agamemnon/Kouloura Island, Pelloponisos","Greece, Pelloponisos",Greece,,Pelloponisos,36.8060892,21.72134399,UTC,intermediate,advanced,KLX,Other,agamemnon-kouloura-island-pelloponisos-greece,TRUE,Messenia Regional Unit,0,30528,Naxos Island,13.4
Agami,Agami,Egypt,Egypt,,,31.12790541,29.77329254,UTC,intermediate,advanced,HBE,Other,agami-egypt,TRUE,Alexandria,0,6652,Alexandria,19.9
aganoa,aganoa,Samoa Western,Samoa Western,,,-13.77508655,-172.2872221,UTC,beginner,intermediate,MXS,Other,aganoa-samoa-western,TRUE,,,,,
Agate Beach,"Agate Beach, North West, Oregon Central","USA, North West, Oregon Central",USA,North West,Oregon Central,44.65363474,-124.0629387,America/Los_Angeles,beginner,intermediate,ONP,North America,agate-beach-north-west-oregon-central-usa,TRUE,Lincoln County,0,21462,Lincoln City,34.0
Agate Beach North,"Agate Beach North, North West, Oregon Central","USA, North West, Oregon Central",USA,North West,Oregon Central,44.67226946,-124.0680242,America/Los_Angeles,beginner,intermediate,ONP,North America,agate-beach-north-north-west-oregon-central-usa,TRUE,Lincoln County,0,21462,Lincoln City,34.0
Agger,Agger,Denmark,Denmark,,,56.72476063,8.221206665,UTC,beginner,intermediate,TED,Europe,agger-denmark,TRUE,,,,,
Agia Fotia,"Agia Fotia, Crete Island","Greece, Crete Island",Greece,,Crete Island,35.19605901,26.15085393,UTC,intermediate,advanced,JSH,Other,agia-fotia-crete-island-greece,TRUE,Sitia Municipal Unit,0,30528,Naxos Island,13.4
Agios Dimitrios,"Agios Dimitrios, Pelloponisos","Greece, Pelloponisos",Greece,,Pelloponisos,37.80507945,23.85121107,UTC,intermediate,advanced,ATH,Other,agios-dimitrios-pelloponisos-greece,TRUE,Regional Unit of East Attica,0,30528,Naxos Island,13.4
Agios Giorgios - Corfu,"Agios Giorgios - Corfu, Ionian Sea","Greece, Ionian Sea",Greece,,Ionian Sea,39.7149779,19.68114853,UTC,intermediate,advanced,CFU,Other,agios-giorgios-corfu-ionian-sea-greece,TRUE,Corfu Regional Unit,0,30528,Naxos Island,13.4
Aglayankaya,"Aglayankaya, Black-Sea","Turkey, Black-Sea",Turkey,,Black-Sea,41.1751331,29.62474108,UTC,intermediate,advanced,SAW,Other,aglayankaya-black-sea-turkey,TRUE,Şile,0,1667168,Beyoglu,57.2
Agnes Water,"Agnes Water, QLD, Central-Queensland","Australia, QLD, Central-Queensland",Australia,QLD,Central-Queensland,-24.20829872,151.908946,Australia/Sydney,beginner,intermediate,GLT,Oceania,agnes-water-qld-central-queensland-australia,TRUE,Gladstone Regional,0,,,
Agrili,"Agrili, Pelloponisos","Greece, Pelloponisos",Greece,,Pelloponisos,37.21561693,21.59709871,UTC,intermediate,advanced,KLX,Other,agrili-pelloponisos-greece,TRUE,Messenia Regional Unit,0,30528,Naxos Island,13.4
Aguçadoura,"Aguçadoura, North Porto","Portugal, North Porto",Portugal,,North Porto,41.43037188,-8.787689209,Europe/Lisbon,intermediate,advanced,OPO,Europe,agucadoura-north-porto-portugal,TRUE,,,,,
Aguilar,"Aguilar, Asturias","Spain, Asturias",Spain,,Asturias,43.55501753,-6.116713285,Europe/Madrid,beginner,intermediate,OVD,Europe,aguilar-asturias-spain,TRUE,,,,,
Agujas,"Agujas, Pacific South","Costa Rica, Pacific South",Costa Rica,,Pacific South,9.722698754,-84.65392828,UTC,intermediate,advanced,JAP,Central America,agujas-pacific-south-costa-rica,TRUE,,,,,
Ahogados,"Ahogados, Central Santiago","Chile, Central Santiago",Chile,,Central Santiago,-33.39896018,-71.70168042,UTC,intermediate,advanced,VAP,South America,ahogados-central-santiago-chile,TRUE,,,,,
Ahtony,Ahtony,Bulgaria,Bulgaria,,,42.10090354,27.94314623,UTC,beginner,intermediate,BOJ,Other,ahtony-bulgaria,TRUE,,,,,
Aigrettes left,Aigrettes left,Reunion,Reunion,,,-21.03700245,55.21677017,UTC,intermediate,advanced,RUN,Other,aigrettes-left-reunion,TRUE,,,,,
Aigrettes Right,Aigrettes Right,Reunion,Reunion,,,-21.03447145,55.21806031,UTC,intermediate,advanced,RUN,Other,aigrettes-right-reunion,TRUE,,,,,
Aiguadolc,"Aiguadolc, Mediterranean","Spain, Mediterranean",Spain,,Mediterranean,41.23434893,1.828579903,Europe/Madrid,beginner,intermediate,BCN,Europe,aiguadolc-mediterranean-spain,TRUE,,,,,
Aileens,"Aileens, West","Ireland, West",Ireland,,West,52.98410026,-9.438929558,UTC,advanced,advanced,INQ,Europe,aileens-west-ireland,TRUE,,,,,
Ain Diab Porte 15,"Ain Diab Porte 15, North","Morocco, North",Morocco,,North,33.58397348,-7.692701519,Africa/Casablanca,beginner,intermediate,CMN,Africa,ain-diab-porte-15-north-morocco,TRUE,Casablanca,0,4281,Casablanca,6.9
Ain El Turk,Ain El Turk,Algeria,Algeria,,,35.73777232,-0.735901594,UTC,beginner,intermediate,ORN,Other,ain-el-turk-algeria,TRUE,,,,,
Airport left,Airport left,St Barthelemy,St Barthelemy,,,17.90714102,-62.83952236,UTC,intermediate,advanced,SBH,Other,airport-left-st-barthelemy,TRUE,,,,,
Airport right,Airport right,Maldives,Maldives,,,-0.702900516,73.17156315,UTC,intermediate,advanced,GAN,Asia,airport-right-maldives,TRUE,Addu City,0,,,
Airport Rights,"Airport Rights, New Zealand NI, SW Coast","New Zealand, New Zealand NI, SW Coast",New Zealand,New Zealand NI,SW Coast,-41.33719517,174.8071146,Pacific/Auckland,intermediate,advanced,WLG,Oceania,airport-rights-new-zealand-ni-sw-coast-new-zealand,TRUE,Lower Hutt,0,4587,Lower Hutt,16.2
Airport's,"Airport's, Bali","Indonesia, Bali",Indonesia,,Bali,-8.745123882,115.1503229,Asia/Jakarta,intermediate,advanced,DPS,Asia,airport-s-bali-indonesia,TRUE,Badung,0,,,
Aivados,"Aivados, South","Portugal, South",Portugal,,South,37.80627119,-8.797385201,Europe/Lisbon,beginner,intermediate,PRM,Europe,aivados-south-portugal,TRUE,,,,,
Aizkorri,"Aizkorri, Pais Vasco","Spain, Pais Vasco",Spain,,Pais Vasco,43.38197093,-3.016777039,Europe/Madrid,intermediate,advanced,BIO,Europe,aizkorri-pais-vasco-spain,TRUE,,,,,
Ajo,"Ajo, Cantabria","Spain, Cantabria",Spain,,Cantabria,43.49891578,-3.61323595,Europe/Madrid,beginner,intermediate,SDR,Europe,ajo-cantabria-spain,TRUE,,,,,
Akabane Long Beach,"Akabane Long Beach, Shizuoka","Japan, Shizuoka",Japan,,Shizuoka,34.6,137.2,UTC,beginner,intermediate,NGO,Asia,akabane-long-beach-shizuoka-japan,TRUE,Tahara,0,1493482,Tahara,9.6
Akaehama,"Akaehama, Kyushu","Japan, Kyushu",Japan,,Kyushu,31.39304689,131.0724735,UTC,intermediate,advanced,KOJ,Asia,akaehama-kyushu-japan,TRUE,Higashikushira,0,25713,Naha,14.6
Akkorokamui,"Akkorokamui, QLD, Gold Coast","Australia, QLD, Gold Coast",Australia,QLD,Gold Coast,-27.93980607,153.4337711,Australia/Sydney,advanced,advanced,SHQ,Oceania,akkorokamui-qld-gold-coast-australia,TRUE,,,,,
Aktau,Aktau,Kazakhstan,Kazakhstan,,,43.62035702,51.1892252,UTC,beginner,intermediate,SCO,Other,aktau-kazakhstan,TRUE,,,,,
Ala Moana,"Ala Moana, Lima","Peru, Lima",Peru,,Lima,-12.15897004,-77.02768922,UTC,intermediate,advanced,LIM,South America,ala-moana-lima-peru,TRUE,Lima,0,12048,Lima,12.9
Ala Moana Bowls,"Ala Moana Bowls, Hawaii, Oahu","USA, Hawaii, Oahu",USA,Hawaii,Oahu,21.28087693,-157.8438914,America/Los_Angeles,intermediate,advanced,HNL,North America,ala-moana-bowls-hawaii-oahu-usa,TRUE,East Honolulu,0,,,
Ala Moana Courts,"Ala Moana Courts, Hawaii, Oahu","USA, Hawaii, Oahu",USA,Hawaii,Oahu,21.29065393,-157.8540999,America/Los_Angeles,intermediate,advanced,HNL,North America,ala-moana-courts-hawaii-oahu-usa,TRUE,Honolulu,0,23374,Honolulu,1.9
Alabama Point,"Alabama Point, Gulf Coast, Alabama","USA, Gulf Coast, Alabama",USA,Gulf Coast,Alabama,30.27090984,-87.55939901,America/Los_Angeles,beginner,intermediate,GUF,North America,alabama-point-gulf-coast-alabama-usa,TRUE,Baldwin County,0,,,
Alacati,Alacati,Turkey,Turkey,,,38.23905651,26.31062508,UTC,beginner,intermediate,JKH,Other,alacati-turkey,TRUE,,,,,
"Alanya, Keykubat","Alanya, Keykubat",Turkey,Turkey,,,36.53967416,32.02342987,UTC,beginner,intermediate,GZP,Other,alanya-keykubat-turkey,TRUE,,,,,
Alassio,"Alassio, Mainland","Italy, Mainland",Italy,,Mainland,44.00496621,8.172824979,UTC,beginner,intermediate,MCM,Europe,alassio-mainland-italy,TRUE,Alassio,0,12340,Alassio,0.5
Albatross,"Albatross, South J Bay","South Africa, South J Bay",South Africa,,South J Bay,-34.01023007,24.91986752,Africa/Johannesburg,intermediate,advanced,PLZ,Africa,albatross-south-j-bay-south-africa,TRUE,Kouga Local Municipality,0,,,
Albenga,"Albenga, Mainland","Italy, Mainland",Italy,,Mainland,44.0412676,8.223781586,UTC,beginner,intermediate,GOA,Europe,albenga-mainland-italy,TRUE,,,,,
Albufeira,"Albufeira, Algarve","Portugal, Algarve",Portugal,,Algarve,37.08563532,-8.248683214,Europe/Lisbon,beginner,intermediate,FAO,Europe,albufeira-algarve-portugal,TRUE,,,,,
Alexandra Headlands,"Alexandra Headlands, QLD, Sunshine Coast","Australia, QLD, Sunshine Coast",Australia,QLD,Sunshine Coast,-26.67079656,153.1096262,Australia/Sydney,beginner,intermediate,MCY,Oceania,alexandra-headlands-qld-sunshine-coast-australia,TRUE,,,,,
Alfonsina,"Alfonsina, North","Argentina, North",Argentina,,North,-37.99386292,-57.54263163,UTC,beginner,intermediate,MDQ,Other,alfonsina-north-argentina,TRUE,,,,,
alfonsita,alfonsita,Sao Tome,Sao Tome,,,0.193552126,6.702947617,UTC,beginner,intermediate,TMS,Other,alfonsita-sao-tome,TRUE,São Tomé,0,24340,Sao Tome,12.3
Algajola,"Algajola, Corsica","France, Corsica",France,,Corsica,42.60869549,8.868370056,Europe/Paris,beginner,intermediate,CLY,Europe,algajola-corsica-france,TRUE,,,,,
alisitos,"alisitos, Baja Norte","Mexico, Baja Norte",Mexico,,Baja Norte,32.11922638,-116.8829153,America/Mexico_City,beginner,intermediate,ESE,North America,alisitos-baja-norte-mexico,TRUE,Municipio de Playas de Rosarito,0,,,
Allenhurst,"Allenhurst, North East, New Jersey","USA, North East, New Jersey",USA,North East,New Jersey,40.2363277,-73.99491549,America/Los_Angeles,beginner,intermediate,BLM,North America,allenhurst-north-east-new-jersey-usa,TRUE,Allenhurst,0,,,
allerton point,"allerton point, North East, Southern New England","USA, North East, Southern New England",USA,North East,Southern New England,42.30702254,-70.8819437,America/Los_Angeles,beginner,intermediate,BOS,North America,allerton-point-north-east-southern-new-england-usa,TRUE,Hull,0,19050,Hull,2.2
Almáciga,"Almáciga, Tenerife","Canary, Tenerife",Canary,,Tenerife,28.57206667,-16.19261667,UTC,intermediate,advanced,TFN,Other,almaciga-tenerife-canary,TRUE,Santa Cruz de Tenerife,0,24058,Santa Cruz de Tenerife,13.0
Almagreira,"Almagreira, Central Peniche","Portugal, Central Peniche",Portugal,,Central Peniche,39.37902774,-9.314625263,Europe/Lisbon,beginner,intermediate,LIS,Europe,almagreira-central-peniche-portugal,TRUE,Peniche,0,1525562,Peniche de Cima,6.1
Almiros,"Almiros, Crete Island","Greece, Crete Island",Greece,,Crete Island,35.17678124,25.7097137,UTC,beginner,intermediate,JSH,Other,almiros-crete-island-greece,TRUE,Agios Nikolaos,0,23284,Agios Nikolaos,1.7
Alnes Lighthouse (Godoy),Alnes Lighthouse (Godoy),Norway,Norway,,,62.48853896,5.96660614,UTC,beginner,intermediate,AES,Europe,alnes-lighthouse-godoy-norway,TRUE,Giske,0,9206,Stranda,53.7
altafulla,"altafulla, Mediterranean","Spain, Mediterranean",Spain,,Mediterranean,41.13440326,1.384427547,Europe/Madrid,beginner,intermediate,REU,Europe,altafulla-mediterranean-spain,TRUE,Altafulla,0,3131,Altafulla,1.4
AlterSteinbeisser,AlterSteinbeisser,Switzerland,Switzerland,,,46.9949301,8.598775864,UTC,beginner,intermediate,BXO,Other,altersteinbeisser-switzerland,TRUE,Ingenbohl,0,1418132,Breil,43.7
Altona Pier,"Altona Pier, VIC, Melbourne West","Australia, VIC, Melbourne West",Australia,VIC,Melbourne West,-37.87331628,144.8302987,Australia/Sydney,beginner,intermediate,KAH,Oceania,altona-pier-vic-melbourne-west-australia,TRUE,,,,,
Alvor,"Alvor, Algarve","Portugal, Algarve",Portugal,,Algarve,37.12241199,-8.596458435,Europe/Lisbon,beginner,intermediate,PRM,Europe,alvor-algarve-portugal,TRUE,Portimão,0,4883,Portimao,5.5
alykes,"alykes, Ionian Sea","Greece, Ionian Sea",Greece,,Ionian Sea,38.31795596,21.42608643,UTC,beginner,intermediate,GPA,Other,alykes-ionian-sea-greece,TRUE,Mesolongi,0,1511131,Mesolonghi,6.0
Ambila Lamentsa,Ambila Lamentsa,Madagascar,Madagascar,,,-18.85928534,49.14967775,UTC,intermediate,advanced,VAT,Other,ambila-lamentsa-madagascar,TRUE,Vohitranivona,0,5016,Toamasina,83.7
Ambleside Park,"Ambleside Park, West Coast","Canada, West Coast",Canada,,West Coast,49.32501011,-123.1517172,UTC,beginner,intermediate,CXH,North America,ambleside-park-west-coast-canada,TRUE,West Vancouver,0,1522791,West Vancouver,3.9
Amélie,"Amélie, Gironde","France, Gironde",France,,Gironde,45.48527446,-1.152470112,Europe/Paris,beginner,intermediate,RYN,Europe,amelie-gironde-france,TRUE,,,,,
Ammes Beach,"Ammes Beach, Ionian Sea","Greece, Ionian Sea",Greece,,Ionian Sea,38.10923548,20.50692558,UTC,beginner,intermediate,EFL,Other,ammes-beach-ionian-sea-greece,TRUE,Kefallonia Regional Unit,0,30528,Naxos Island,13.4
Amoreira,"Amoreira, Algarve","Portugal, Algarve",Portugal,,Algarve,37.35003186,-8.845496178,Europe/Lisbon,beginner,intermediate,PRM,Europe,amoreira-algarve-portugal,TRUE,Aljezur,0,1420552,Aljezur,5.5
Amorosa,"Amorosa, North Porto","Portugal, North Porto",Portugal,,North Porto,41.66932148,-8.824081421,Europe/Lisbon,beginner,intermediate,OPO,Europe,amorosa-north-porto-portugal,TRUE,Viana do Castelo,0,4953,Viana Do Castelo,2.8
Amoudia Left,"Amoudia Left, Ionian Sea","Greece, Ionian Sea",Greece,,Ionian Sea,39.23770457,20.47800064,UTC,intermediate,advanced,PVK,Other,amoudia-left-ionian-sea-greece,TRUE,Preveza Regional Unit,0,30528,Naxos Island,13.4
Anaël,"Anaël, Brittany North","France, Brittany North",France,,Brittany North,48.58344952,-4.675154686,Europe/Paris,beginner,intermediate,BES,Europe,anael-brittany-north-france,TRUE,,,,,
Anahola Bay,"Anahola Bay, Hawaii, Kauai","USA, Hawaii, Kauai",USA,Hawaii,Kauai,22.14761207,-159.3050194,America/Los_Angeles,intermediate,advanced,HPV,North America,anahola-bay-hawaii-kauai-usa,TRUE,Kauaʻi County,0,23766,Kapaa,8.2
Anamur,Anamur,Turkey,Turkey,,,36.0926671,32.93581009,UTC,intermediate,advanced,GZP,Other,anamur-turkey,TRUE,,,,,
Anaura Bay,"Anaura Bay, New Zealand NI, East Cape","New Zealand, New Zealand NI, East Cape",New Zealand,New Zealand NI,East Cape,-38.2318091,178.3114958,Pacific/Auckland,beginner,intermediate,GIS,Oceania,anaura-bay-new-zealand-ni-east-cape-new-zealand,TRUE,,,,,
Anchor point,"Anchor point, South","Morocco, South",Morocco,,South,30.54520545,-9.726709127,Africa/Casablanca,intermediate,advanced,AGA,Africa,anchor-point-south-morocco,TRUE,,,,,
Anclote,"Anclote, Sinaloa-Nayarit","Mexico, Sinaloa-Nayarit",Mexico,,Sinaloa-Nayarit,20.76787152,-105.5199909,America/Mexico_City,beginner,intermediate,PVR,North America,anclote-sinaloa-nayarit-mexico,TRUE,,,,,
Anclote Island,"Anclote Island, Gulf Coast, Florida","USA, Gulf Coast, Florida",USA,Gulf Coast,Florida,28.20367537,-82.82524109,America/Los_Angeles,beginner,intermediate,CLW,North America,anclote-island-gulf-coast-florida-usa,TRUE,Pasco County,0,,,
Anderson Street,"Anderson Street, California, Orange County","USA, California, Orange County",USA,California,Orange County,33.72285837,-118.0808723,America/Los_Angeles,beginner,intermediate,LGB,North America,anderson-street-california-orange-county-usa,TRUE,Seal Beach,0,17404,Seal Beach,3.0
Andrew molera state beach,"Andrew molera state beach, California, Monterey","USA, California, Monterey",USA,California,Monterey,36.28108237,-121.8577874,America/Los_Angeles,beginner,intermediate,MRY,North America,andrew-molera-state-beach-california-monterey-usa,TRUE,Monterey County,0,17269,Monterey,35.6
Andros (Hora),"Andros (Hora), Aegean Sea","Greece, Aegean Sea",Greece,,Aegean Sea,37.84054659,24.93754864,UTC,intermediate,advanced,JSY,Other,andros-hora-aegean-sea-greece,TRUE,Andros Regional Unit,0,30528,Naxos Island,13.4
Andys' Peak,"Andys' Peak, QLD","Australia, QLD",Australia,,QLD,-16.97271152,149.907192,Australia/Sydney,intermediate,advanced,,Oceania,andys-peak-qld-australia,TRUE,,,,,
Aneho Beach,Aneho Beach,Togo,Togo,,,6.22888316,1.606798768,UTC,beginner,intermediate,LFW,Other,aneho-beach-togo,TRUE,,,,,
Anglesea,"Anglesea, VIC, Melbourne West","Australia, VIC, Melbourne West",Australia,VIC,Melbourne West,-38.41564424,144.1865337,Australia/Sydney,beginner,intermediate,XCO,Oceania,anglesea-vic-melbourne-west-australia,TRUE,,,,,
Anglet - Chambre d Amour,"Anglet - Chambre d Amour, Basque Country","France, Basque Country",France,,Basque Country,43.49458852,-1.547784805,Europe/Paris,beginner,intermediate,BIQ,Europe,anglet-chambre-d-amour-basque-country-france,TRUE,,,,,
Anglet - La Barre,"Anglet - La Barre, Basque Country","France, Basque Country",France,,Basque Country,43.526522,-1.525125504,Europe/Paris,beginner,intermediate,BIQ,Europe,anglet-la-barre-basque-country-france,TRUE,,,,,
Anglet - La Madrague,"Anglet - La Madrague, Basque Country","France, Basque Country",France,,Basque Country,43.51199062,-1.535435915,Europe/Paris,beginner,intermediate,BIQ,Europe,anglet-la-madrague-basque-country-france,TRUE,,,,,
Anglet - Le club,"Anglet - Le club, Basque Country","France, Basque Country",France,,Basque Country,43.49927232,-1.54428117,Europe/Paris,beginner,intermediate,BIQ,Europe,anglet-le-club-basque-country-france,TRUE,,,,,
Anglet - Le Furoncle,"Anglet - Le Furoncle, Basque Country","France, Basque Country",France,,Basque Country,43.52796887,-1.526525617,Europe/Paris,beginner,intermediate,BIQ,Europe,anglet-le-furoncle-basque-country-france,TRUE,,,,,
Anglet - Les Cavaliers,"Anglet - Les Cavaliers, Basque Country","France, Basque Country",France,,Basque Country,43.52325473,-1.526412964,Europe/Paris,beginner,intermediate,BIQ,Europe,anglet-les-cavaliers-basque-country-france,TRUE,,,,,
Anglet - Les Sables d'Or,"Anglet - Les Sables d'Or, Basque Country","France, Basque Country",France,,Basque Country,43.50177347,-1.541905403,Europe/Paris,beginner,intermediate,BIQ,Europe,anglet-les-sables-d-or-basque-country-france,TRUE,Anglet,0,14344,Biarritz,2.6
Anglet - Marinella,"Anglet - Marinella, Basque Country","France, Basque Country",France,,Basque Country,43.5049883,-1.539830714,Europe/Paris,beginner,intermediate,BIQ,Europe,anglet-marinella-basque-country-france,TRUE,,,,,
Angourie Lefts,"Angourie Lefts, NSW, North","Australia, NSW, North",Australia,NSW,North,-29.48652829,153.3651924,Australia/Sydney,intermediate,advanced,EVH,Oceania,angourie-lefts-nsw-north-australia,TRUE,,,,,
Angourie Point,"Angourie Point, NSW, North","Australia, NSW, North",Australia,NSW,North,-29.48219484,153.3660936,Australia/Sydney,intermediate,advanced,EVH,Oceania,angourie-point-nsw-north-australia,TRUE,,,,,
Angras Juntas left,Angras Juntas left,Namibia,Namibia,,,-27.7480376,15.5462122,UTC,intermediate,advanced,RHN,Other,angras-juntas-left-namibia,TRUE,,,,,
Anjarle,"Anjarle, North-West","India, North-West",India,,North-West,17.84398521,73.08745015,UTC,beginner,intermediate,RTC,Other,anjarle-north-west-india,TRUE,,,,,
Anjos,"Anjos, Eastern group","Azores, Eastern group",Azores,,Eastern group,37.00541438,-25.15656173,UTC,beginner,intermediate,SMA,Other,anjos-eastern-group-azores,TRUE,,,,,
Ann bay,"Ann bay, TAS","Australia, TAS",Australia,,TAS,-40.88065451,144.7029461,Australia/Sydney,beginner,intermediate,SIO,Oceania,ann-bay-tas-australia,TRUE,Circular Head,0,,,
Anna Maria Island,"Anna Maria Island, Gulf Coast, Florida","USA, Gulf Coast, Florida",USA,Gulf Coast,Florida,27.53867996,-82.74434566,America/Los_Angeles,beginner,intermediate,SRQ,North America,anna-maria-island-gulf-coast-florida-usa,TRUE,Anna Maria island,0,30410,Anna Maria Island,3.7
Anna Maria Island - Beach Streets,"Anna Maria Island - Beach Streets, Gulf Coast, Florida","USA, Gulf Coast, Florida",USA,Gulf Coast,Florida,27.53278159,-82.74318695,America/Los_Angeles,beginner,intermediate,SRQ,North America,anna-maria-island-beach-streets-gulf-coast-florida-usa,TRUE,Anna Maria island,0,30410,Anna Maria Island,3.7
Annaba,Annaba,Algeria,Algeria,,,36.86314143,7.782440186,UTC,intermediate,advanced,AAE,Other,annaba-algeria,TRUE,,,,,
Anne Avenue (St Francis Bay),"Anne Avenue (St Francis Bay), South J Bay","South Africa, South J Bay",South Africa,,South J Bay,-34.16295449,24.8333931,Africa/Johannesburg,intermediate,advanced,PLZ,Africa,anne-avenue-st-francis-bay-south-j-bay-south-africa,TRUE,,,,,
Anne street reef,"Anne street reef, QLD, Sunshine Coast","Australia, QLD, Sunshine Coast",Australia,QLD,Sunshine Coast,-26.77844929,153.1401229,Australia/Sydney,intermediate,advanced,CUD,Oceania,anne-street-reef-qld-sunshine-coast-australia,TRUE,,,,,
Annestown,"Annestown, South East","Ireland, South East",Ireland,,South East,52.13433099,-7.282905579,UTC,beginner,intermediate,WAT,Europe,annestown-south-east-ireland,TRUE,,,,,
Ano Nuevo,"Ano Nuevo, California, Santa Cruz","USA, California, Santa Cruz",USA,California,Santa Cruz,37.11447289,-122.311306,America/Los_Angeles,intermediate,advanced,NUQ,North America,ano-nuevo-california-santa-cruz-usa,TRUE,San Mateo County,0,17381,San Mateo,49.9
Anse à la barque,Anse à la barque,Guadeloupe,Guadeloupe,,,16.24071649,-61.32113457,UTC,beginner,intermediate,SFC,Other,anse-a-la-barque-guadeloupe,TRUE,,,,,
Anse à la Bouelle,Anse à la Bouelle,Guadeloupe,Guadeloupe,,,16.33348331,-61.3321209,UTC,beginner,intermediate,SFC,Other,anse-a-la-bouelle-guadeloupe,TRUE,Le Moule,0,,,
Anse Banane,"Anse Banane, La Digue","Seychelles, La Digue",Seychelles,,La Digue,-4.350861622,55.84820509,UTC,intermediate,advanced,PRI,Other,anse-banane-la-digue-seychelles,TRUE,,,,,
Anse Bertrand,Anse Bertrand,Guadeloupe,Guadeloupe,,,16.47271559,-61.51193619,UTC,beginner,intermediate,PTP,Other,anse-bertrand-guadeloupe,TRUE,,,,,
Anse Bourgainville,"Anse Bourgainville, Mahe","Seychelles, Mahe",Seychelles,,Mahe,-4.759364979,55.52166224,UTC,intermediate,advanced,SEZ,Other,anse-bourgainville-mahe-seychelles,TRUE,Victoria,0,23485,Victoria,17.7
Anse Charpentier (right),Anse Charpentier (right),Martinique,Martinique,,,14.80782812,-61.01474047,UTC,intermediate,advanced,FDF,Other,anse-charpentier-right-martinique,TRUE,,,,,
Anse Cocos,"Anse Cocos, La Digue","Seychelles, La Digue",Seychelles,,La Digue,-4.367036699,55.85170269,UTC,intermediate,advanced,PRI,Other,anse-cocos-la-digue-seychelles,TRUE,,,,,
Anse Couleuvre,Anse Couleuvre,Martinique,Martinique,,,14.84400443,-61.21946812,UTC,intermediate,advanced,FDF,Other,anse-couleuvre-martinique,TRUE,,,,,
Anse des Cayes,Anse des Cayes,St Barthelemy,St Barthelemy,,,17.91139816,-62.84323454,UTC,intermediate,advanced,SBH,Other,anse-des-cayes-st-barthelemy,TRUE,,,,,
Anse des Lézards,Anse des Lézards,St Barthelemy,St Barthelemy,,,17.91716606,-62.8471452,UTC,intermediate,advanced,SBH,Other,anse-des-lezards-st-barthelemy,TRUE,,,,,
Anse du Brick,"Anse du Brick, Normandy","France, Normandy",France,,Normandy,49.66883605,-1.487209797,Europe/Paris,beginner,intermediate,CER,Europe,anse-du-brick-normandy-france,TRUE,,,,,
Anse du Ris,"Anse du Ris, Brittany South","France, Brittany South",France,,Brittany South,48.09459164,-4.306640625,Europe/Paris,beginner,intermediate,UIP,Europe,anse-du-ris-brittany-south-france,TRUE,,,,,
Anse Gaulette,"Anse Gaulette, Mahe","Seychelles, Mahe",Seychelles,,Mahe,-4.760519697,55.48408985,UTC,intermediate,advanced,SEZ,Other,anse-gaulette-mahe-seychelles,TRUE,Victoria,0,23485,Victoria,17.7
Anse Kerlan,"Anse Kerlan, Pralin","Seychelles, Pralin",Seychelles,,Pralin,-4.309384657,55.68350673,UTC,beginner,intermediate,PRI,Other,anse-kerlan-pralin-seychelles,TRUE,,,,,
Anse Patates,"Anse Patates, La Digue","Seychelles, La Digue",Seychelles,,La Digue,-4.337660276,55.83384991,UTC,beginner,intermediate,PRI,Other,anse-patates-la-digue-seychelles,TRUE,,,,,
Anse Royale,"Anse Royale, Mahe","Seychelles, Mahe",Seychelles,,Mahe,-4.747090634,55.52103996,UTC,beginner,intermediate,SEZ,Other,anse-royale-mahe-seychelles,TRUE,Victoria,0,23485,Victoria,17.7
Anse Salabouelle,Anse Salabouelle,Guadeloupe,Guadeloupe,,,16.32681149,-61.30528808,UTC,beginner,intermediate,SFC,Other,anse-salabouelle-guadeloupe,TRUE,,,,,
Anse Sevére,"Anse Sevére, La Digue","Seychelles, La Digue",Seychelles,,La Digue,-4.339852672,55.82977295,UTC,beginner,intermediate,PRI,Other,anse-severe-la-digue-seychelles,TRUE,,,,,
Anse Soleil,"Anse Soleil, Mahe","Seychelles, Mahe",Seychelles,,Mahe,-4.744636808,55.4653573,UTC,beginner,intermediate,SEZ,Other,anse-soleil-mahe-seychelles,TRUE,Victoria,0,23485,Victoria,17.7
Anse st Martin,"Anse st Martin, Normandy","France, Normandy",France,,Normandy,49.70657111,-1.889095902,Europe/Paris,beginner,intermediate,ACI,Europe,anse-st-martin-normandy-france,TRUE,La Hague,0,14344,Biarritz,2.6
Anse Trabaud,Anse Trabaud,Martinique,Martinique,,,14.4066666,-60.84872246,UTC,beginner,intermediate,FDF,Other,anse-trabaud-martinique,TRUE,,,,,
Ansedonia - Il Cartello,"Ansedonia - Il Cartello, Mainland","Italy, Mainland",Italy,,Mainland,42.41463324,11.27744436,UTC,intermediate,advanced,GRS,Europe,ansedonia-il-cartello-mainland-italy,TRUE,,,,,
Anson Bay,"Anson Bay, NSW, North","Australia, NSW, North",Australia,NSW,North,-31.54108988,159.0710449,Australia/Sydney,beginner,intermediate,LDH,Oceania,anson-bay-nsw-north-australia,TRUE,Unincorporated Lord Howe Island,0,,,
Ansteys Beach,"Ansteys Beach, Durban","South Africa, Durban",South Africa,,Durban,-29.92561171,31.0191679,Africa/Johannesburg,intermediate,advanced,VIR,Africa,ansteys-beach-durban-south-africa,TRUE,Durban,0,688,Durban,7.6
Antalya,Antalya,Turkey,Turkey,,,36.84716097,30.80872178,UTC,beginner,intermediate,AYT,Other,antalya-turkey,TRUE,Antalya,0,2702,Antalya,10.2
Antenas,Antenas,Sao Tome,Sao Tome,,,0.296368022,6.760503799,UTC,beginner,intermediate,TMS,Other,antenas-sao-tome,TRUE,São Tomé,0,24340,Sao Tome,12.3
Antigues Cape,Antigues Cape,Guadeloupe,Guadeloupe,,,16.43419173,-61.5396595,UTC,intermediate,advanced,PTP,Other,antigues-cape-guadeloupe,TRUE,,,,,
Antiques,Antiques,Maldives,Maldives,,,0.281870277,73.44598532,UTC,intermediate,advanced,RUL,Asia,antiques-maldives,TRUE,,,,,
Antlers beach,"Antlers beach, East Coast","Canada, East Coast",Canada,,East Coast,49.74052691,-119.7613621,UTC,beginner,intermediate,CBA,North America,antlers-beach-east-coast-canada,TRUE,Peachland,0,1473156,Peachland,3.5
Anza,"Anza, South","Morocco, South",Morocco,,South,30.45030152,-9.663119316,Africa/Casablanca,intermediate,advanced,AGA,Africa,anza-south-morocco,TRUE,,,,,
Anzacs,"Anzacs, VIC, Melbourne East","Australia, VIC, Melbourne East",Australia,VIC,Melbourne East,-38.53805373,145.3332961,Australia/Sydney,intermediate,advanced,MBW,Oceania,anzacs-vic-melbourne-east-australia,TRUE,Bass Coast Shire,0,,,
Aoshima beach break,"Aoshima beach break, Kyushu","Japan, Kyushu",Japan,,Kyushu,31.80513318,131.4672089,UTC,beginner,intermediate,KMI,Asia,aoshima-beach-break-kyushu-japan,TRUE,Miyazaki,0,25698,Miyazaki,12.5
Aoshima Reef,"Aoshima Reef, Kyushu","Japan, Kyushu",Japan,,Kyushu,31.80271993,131.4779377,UTC,intermediate,advanced,KMI,Asia,aoshima-reef-kyushu-japan,TRUE,Miyazaki,0,25698,Miyazaki,12.5
apache pier,"apache pier, South East, South Carolina","USA, South East, South Carolina",USA,South East,South Carolina,33.76245183,-78.78128529,America/Los_Angeles,beginner,intermediate,CRE,North America,apache-pier-south-east-south-carolina-usa,TRUE,Horry County,0,,,
Aparri,"Aparri, Luzon","Philippines, Luzon",Philippines,,Luzon,18.36075742,121.626935,UTC,beginner,intermediate,LLC,Asia,aparri-luzon-philippines,TRUE,,,,,
Apocalypse,"Apocalypse, West Java","Indonesia, West Java",Indonesia,,West Java,-6.614648119,105.1306629,Asia/Jakarta,intermediate,advanced,TKG,Asia,apocalypse-west-java-indonesia,TRUE,,,,,
Apollo Bay,"Apollo Bay, VIC, Melbourne West","Australia, VIC, Melbourne West",Australia,VIC,Melbourne West,-38.7504018,143.6705303,Australia/Sydney,beginner,intermediate,XCO,Oceania,apollo-bay-vic-melbourne-west-australia,TRUE,Shire of Colac Otway,0,,,
Apollonas. Naxos,"Apollonas. Naxos, Aegean Sea","Greece, Aegean Sea",Greece,,Aegean Sea,37.18001394,25.55419922,UTC,intermediate,advanced,JNX,Other,apollonas-naxos-aegean-sea-greece,TRUE,Naxos Regional Unit,0,30528,Naxos Island,13.4
apolonia,apolonia,Israel,Israel,,,32.1941088,34.80654359,UTC,beginner,intermediate,TLV,Other,apolonia-israel,TRUE,Herzliya,0,2973,Herzliya,4.2
Aquatic centre,"Aquatic centre, New Zealand NI, West Coast Taranaki","New Zealand, New Zealand NI, West Coast Taranaki",New Zealand,New Zealand NI,West Coast Taranaki,-39.05421791,174.0618467,Pacific/Auckland,beginner,intermediate,NPL,Oceania,aquatic-centre-new-zealand-ni-west-coast-taranaki-new-zealand,TRUE,New Plymouth,0,4609,New Plymouth,2.3
Ar Loïs,"Ar Loïs, Brittany South","France, Brittany South",France,,Brittany South,47.82613094,-4.369511604,Europe/Paris,beginner,intermediate,UIP,Europe,ar-lois-brittany-south-france,TRUE,,,,,
Aracaju,"Aracaju, Sergipe-Alagoas","Brazil, Sergipe-Alagoas",Brazil,,Sergipe-Alagoas,-10.98767386,-37.04114556,America/Sao_Paulo,beginner,intermediate,AJU,South America,aracaju-sergipe-alagoas-brazil,TRUE,,,,,
Arachania,Arachania,Uruguay,Uruguay,,,-34.62221662,-54.14869308,UTC,intermediate,advanced,PDP,Other,arachania-uruguay,TRUE,Arachania,0,1474413,Jose Ignacio,51.0
Arambol,"Arambol, North-West","India, North-West",India,,North-West,15.68717064,73.70281219,UTC,beginner,intermediate,GOX,Other,arambol-north-west-india,TRUE,Pernem,0,1506783,Patnem,84.5
Aramoana,"Aramoana, New Zealand SI, SE Coast","New Zealand, New Zealand SI, SE Coast",New Zealand,New Zealand SI,SE Coast,-45.77611408,170.7105875,Pacific/Auckland,intermediate,advanced,DUD,Oceania,aramoana-new-zealand-si-se-coast-new-zealand,TRUE,Dunedin City,0,,,
Araruna,"Araruna, Para","Brazil, Para",Brazil,,Para,-0.688517211,-48.48326683,America/Sao_Paulo,intermediate,advanced,SFK,South America,araruna-para-brazil,TRUE,Soure,0,,,
Arashi,Arashi,Aruba,Aruba,,,12.62006991,-70.05397797,UTC,intermediate,advanced,AUA,Other,arashi-aruba,TRUE,Noord overig,0,,,
Arawahata Road,"Arawahata Road, New Zealand NI, West Coast Taranaki","New Zealand, New Zealand NI, West Coast Taranaki",New Zealand,New Zealand NI,West Coast Taranaki,-39.41975118,173.8016939,Pacific/Auckland,beginner,intermediate,NPL,Oceania,arawahata-road-new-zealand-ni-west-coast-taranaki-new-zealand,TRUE,South Taranaki District,0,,,
Arcadia,"Arcadia, North West, Oregon North","USA, North West, Oregon North",USA,North West,Oregon North,45.846888,-123.9620876,America/Los_Angeles,beginner,intermediate,AST,North America,arcadia-north-west-oregon-north-usa,TRUE,Clatsop County,0,21428,Clatskanie,64.9
Arcadia,Arcadia,Ukraine,Ukraine,,,46.42826645,30.76848865,UTC,beginner,intermediate,ODS,Other,arcadia-ukraine,TRUE,,,,,
Archies,"Archies, QLD, North West","Australia, QLD, North West",Australia,QLD,North West,-24.84695478,152.4780035,Australia/Sydney,beginner,intermediate,BDB,Oceania,archies-qld-north-west-australia,TRUE,Bundaberg,0,5144,Bundaberg,12.9
Ardkeragh,"Ardkeragh, South West","Ireland, South West",Ireland,,South West,51.80334089,-10.17563581,UTC,beginner,intermediate,BYT,Europe,ardkeragh-south-west-ireland,TRUE,,,,,
Areias,"Areias, Eastern group","Azores, Eastern group",Azores,,Eastern group,37.81778517,-25.54853439,UTC,intermediate,advanced,PDL,Other,areias-eastern-group-azores,TRUE,,,,,
Argaman's Beach,Argaman's Beach,Israel,Israel,,,32.30233262,34.84069347,UTC,beginner,intermediate,TLV,Other,argaman-s-beach-israel,TRUE,Netanya,0,2981,Netanya,3.9
Argelès-Sur-Mer,"Argelès-Sur-Mer, Mediterranean","France, Mediterranean",France,,Mediterranean,42.5673048,3.046324253,Europe/Paris,beginner,intermediate,PGF,Europe,argeles-sur-mer-mediterranean-france,TRUE,Argelès-sur-Mer,0,14214,Argeles-sur-Mer,1.0
Arguineguin,"Arguineguin, Gran Canaria","Canary, Gran Canaria",Canary,,Gran Canaria,27.7552631,-15.67900836,UTC,intermediate,advanced,LPA,Other,arguineguin-gran-canaria-canary,TRUE,,,,,
Ariks,"Ariks, Mentawai","Indonesia, Mentawai",Indonesia,,Mentawai,-2.024839315,99.56531525,Asia/Jakarta,advanced,advanced,RKI,Asia,ariks-mentawai-indonesia,TRUE,,,,,
Arkutino,Arkutino,Bulgaria,Bulgaria,,,42.33645263,27.73264647,UTC,beginner,intermediate,BOJ,Other,arkutino-bulgaria,TRUE,,,,,
Arma di Taggia,"Arma di Taggia, Mainland","Italy, Mainland",Italy,,Mainland,43.82556415,7.845783234,UTC,beginner,intermediate,MCM,Europe,arma-di-taggia-mainland-italy,TRUE,,,,,
Armação,"Armação, Florianopolis","Brazil, Florianopolis",Brazil,,Florianopolis,-27.74161876,-48.50811481,America/Sao_Paulo,intermediate,advanced,FLN,South America,armacao-florianopolis-brazil,TRUE,Florianópolis,0,6362,Florianopolis,16.6
Army Camp,"Army Camp, Savu Sea","Indonesia, Savu Sea",Indonesia,,Savu Sea,-10.97949026,122.8433747,Asia/Jakarta,intermediate,advanced,RTI,Asia,army-camp-savu-sea-indonesia,TRUE,,,,,
Arna plage,"Arna plage, Landes","France, Landes",France,,Landes,43.91159006,-1.376895905,Europe/Paris,beginner,intermediate,BIQ,Europe,arna-plage-landes-france,TRUE,,,,,
Arnold,"Arnold, California, Ventura","USA, California, Ventura",USA,California,Ventura,34.1207225,-119.1592169,America/Los_Angeles,beginner,intermediate,NTD,North America,arnold-california-ventura-usa,TRUE,Oxnard,0,17305,Oxnard,8.7
Arpoador,"Arpoador, Rio de Janeiro City","Brazil, Rio de Janeiro City",Brazil,,Rio de Janeiro City,-22.98991349,-43.19165468,America/Sao_Paulo,beginner,intermediate,SDU,South America,arpoador-rio-de-janeiro-city-brazil,TRUE,,,,,
Arraial do Cabo,"Arraial do Cabo, Rio de Janeiro Norte","Brazil, Rio de Janeiro Norte",Brazil,,Rio de Janeiro Norte,-22.94266506,-42.03005433,America/Sao_Paulo,beginner,intermediate,CFB,South America,arraial-do-cabo-rio-de-janeiro-norte-brazil,TRUE,,,,,
Arrawarra point,"Arrawarra point, NSW, Banana Coast","Australia, NSW, Banana Coast",Australia,NSW,Banana Coast,-30.05869425,153.2034874,Australia/Sydney,intermediate,advanced,CFS,Oceania,arrawarra-point-nsw-banana-coast-australia,TRUE,Coffs Harbour City Council,0,,,
Arrieta,"Arrieta, Lanzarote","Canary, Lanzarote",Canary,,Lanzarote,29.12811555,-13.46420646,UTC,beginner,intermediate,ACE,Other,arrieta-lanzarote-canary,TRUE,,,,,
Arrifana,"Arrifana, Algarve","Portugal, Algarve",Portugal,,Algarve,37.29443748,-8.871245384,Europe/Lisbon,intermediate,advanced,PRM,Europe,arrifana-algarve-portugal,TRUE,,,,,
Arrigunaga,"Arrigunaga, Pais Vasco","Spain, Pais Vasco",Spain,,Pais Vasco,43.35813672,-3.022270203,Europe/Madrid,beginner,intermediate,BIO,Europe,arrigunaga-pais-vasco-spain,TRUE,,,,,
Arroio do Silva,"Arroio do Silva, Santa Catarina","Brazil, Santa Catarina",Brazil,,Santa Catarina,-28.99380228,-49.41530228,America/Sao_Paulo,beginner,intermediate,CCM,South America,arroio-do-silva-santa-catarina-brazil,TRUE,,,,,
Arroyo seco,"Arroyo seco, Jalisco","Mexico, Jalisco",Mexico,,Jalisco,19.31722393,-104.9457139,America/Mexico_City,intermediate,advanced,ZLO,North America,arroyo-seco-jalisco-mexico,TRUE,,,,,
Artificial reef,"Artificial reef, WA, Perth City","Australia, WA, Perth City",Australia,WA,Perth City,-32.01574506,115.7484233,Australia/Sydney,beginner,intermediate,JFM,Oceania,artificial-reef-wa-perth-city-australia,TRUE,Perth,0,5536,Perth,12.5
Arugam Bay,Arugam Bay,Sri Lanka,Sri Lanka,,,6.84008574,81.83947563,UTC,intermediate,advanced,AYY,Asia,arugam-bay-sri-lanka,TRUE,,,,,
Åsa (Aasa),Åsa (Aasa),Sweden,Sweden,,,57.33625045,12.09388733,UTC,beginner,intermediate,GOT,Europe,asa-aasa-sweden,TRUE,Kungsbacka kommun,0,1479489,Hono,46.2
Asbury Park,"Asbury Park, North East, New Jersey","USA, North East, New Jersey",USA,North East,New Jersey,40.22813695,-73.99530172,America/Los_Angeles,beginner,intermediate,BLM,North America,asbury-park-north-east-new-jersey-usa,TRUE,Asbury Park,0,20337,Asbury Park,1.7
Aserradores,Aserradores,Nicaragua,Nicaragua,,,12.62509528,-87.35444069,UTC,intermediate,advanced,MGA,Other,aserradores-nicaragua,TRUE,El Viejo,0,1489472,Las Penitas,46.2
Ashdod -hshover,Ashdod -hshover,Israel,Israel,,,31.81738919,34.64012861,UTC,beginner,intermediate,TLV,Other,ashdod-hshover-israel,TRUE,Ashdod,0,2963,Ashdod,0.9
Ashe,"Ashe, Black Sea","Russia, Black Sea",Russia,,Black Sea,43.9565993,39.26368296,UTC,beginner,intermediate,AER,Other,ashe-black-sea-russia,TRUE,,,,,
Asia - Palmas,"Asia - Palmas, Lima","Peru, Lima",Peru,,Lima,-12.77832157,-76.608181,UTC,intermediate,advanced,LIM,South America,asia-palmas-lima-peru,TRUE,,,,,
Asia del Mar,"Asia del Mar, Lima","Peru, Lima",Peru,,Lima,-12.81950103,-76.55591011,UTC,beginner,intermediate,LIM,South America,asia-del-mar-lima-peru,TRUE,,,,,
Asilomar,"Asilomar, California, Monterey","USA, California, Monterey",USA,California,Monterey,36.61801633,-121.9427544,America/Los_Angeles,beginner,intermediate,MRY,North America,asilomar-california-monterey-usa,TRUE,Monterey County,0,17269,Monterey,35.6
Asling's Beach,"Asling's Beach, NSW, Far South","Australia, NSW, Far South",Australia,NSW,Far South,-37.05337902,149.9149275,Australia/Sydney,beginner,intermediate,MIM,Oceania,asling-s-beach-nsw-far-south-australia,TRUE,Bega Valley Shire Council,0,,,
Assateague,"Assateague, North East, Virginia","USA, North East, Virginia",USA,North East,Virginia,38.20689271,-75.14674187,America/Los_Angeles,beginner,intermediate,OCE,North America,assateague-north-east-virginia-usa,TRUE,Worcester County,0,,,
Assinie,Assinie,Ivory Coast,Ivory Coast,,,5.125653027,-3.290834427,UTC,intermediate,advanced,ABO,Other,assinie-ivory-coast,TRUE,,,,,
Assouinde Beach,Assouinde Beach,Ivory Coast,Ivory Coast,,,5.151469719,-3.429107666,UTC,beginner,intermediate,ABO,Other,assouinde-beach-ivory-coast,TRUE,,,,,
Astillero,Astillero,Nicaragua,Nicaragua,,,11.51240651,-86.1716938,UTC,intermediate,advanced,ECI,Other,astillero-nicaragua,TRUE,Tola,0,12267,Tola,26.6
Astúrias,"Astúrias, Sao Paulo North Coast","Brazil, Sao Paulo North Coast",Brazil,,Sao Paulo North Coast,-24.00773751,-46.26647472,America/Sao_Paulo,beginner,intermediate,SSZ,South America,asturias-sao-paulo-north-coast-brazil,TRUE,,,,,
Asu,"Asu, Sumatra Islands","Indonesia, Sumatra Islands",Indonesia,,Sumatra Islands,0.867371806,97.33354568,Asia/Jakarta,intermediate,advanced,GNS,Asia,asu-sumatra-islands-indonesia,TRUE,West Nias,0,,,
Asunchillo,Asunchillo,Nicaragua,Nicaragua,,,11.93398889,-86.62079722,UTC,intermediate,advanced,MGA,Other,asunchillo-nicaragua,TRUE,Villa El Carmen,0,1489472,Las Penitas,46.2
Atacames,Atacames,Ecuador,Ecuador,,,0.876554626,-79.84863281,UTC,beginner,intermediate,ESM,Other,atacames-ecuador,TRUE,,,,,
Ataka,"Ataka, West Coast","Japan, West Coast",Japan,,West Coast,36.41934858,136.4150906,UTC,intermediate,advanced,KMQ,Asia,ataka-west-coast-japan,TRUE,Komatsu,0,25608,Komatsu,3.7
Atalaia,"Atalaia, Santa Catarina North","Brazil, Santa Catarina North",Brazil,,Santa Catarina North,-26.915163,-48.63936067,America/Sao_Paulo,beginner,intermediate,NVT,South America,atalaia-santa-catarina-north-brazil,TRUE,,,,,
Atashika,"Atashika, Kii Hanto","Japan, Kii Hanto",Japan,,Kii Hanto,33.92890425,136.1485863,UTC,intermediate,advanced,SHM,Asia,atashika-kii-hanto-japan,TRUE,Kumano,0,1502022,Kumano,3.7
Ateni Beach,"Ateni Beach, Aegean Sea","Greece, Aegean Sea",Greece,,Aegean Sea,37.91039703,24.83907938,UTC,beginner,intermediate,JSY,Other,ateni-beach-aegean-sea-greece,TRUE,Andros Regional Unit,0,30528,Naxos Island,13.4
Atlantic Beach,"Atlantic Beach, South East, North Carolina","USA, South East, North Carolina",USA,South East,North Carolina,34.70055556,-76.74083333,America/Los_Angeles,beginner,intermediate,EWN,North America,atlantic-beach-south-east-north-carolina-usa,TRUE,Atlantic Beach,0,20005,Atlantic Beach,0.2
Atlantic Playa,"Atlantic Playa, Tenerife","Canary, Tenerife",Canary,,Tenerife,28.04954196,-16.5297997,UTC,beginner,intermediate,TFS,Other,atlantic-playa-tenerife-canary,TRUE,,,,,
Atlântida - Pier,"Atlântida - Pier, Rio Grande do Sul","Brazil, Rio Grande do Sul",Brazil,,Rio Grande do Sul,-29.78471583,-50.0225544,America/Sao_Paulo,beginner,intermediate,TSQ,South America,atlantida-pier-rio-grande-do-sul-brazil,TRUE,,,,,
Atlantis,"Atlantis, Finnish Bay","Russia, Finnish Bay",Russia,,Finnish Bay,60.14377477,29.92635012,UTC,intermediate,advanced,LED,Other,atlantis-finnish-bay-russia,TRUE,,,,,
Audierne - La Gamelle,"Audierne - La Gamelle, Brittany South","France, Brittany South",France,,Brittany South,48.00927638,-4.547567368,Europe/Paris,beginner,intermediate,UIP,Europe,audierne-la-gamelle-brittany-south-france,TRUE,,,,,
Audierne - La Jetée,"Audierne - La Jetée, Brittany South","France, Brittany South",France,,Brittany South,48.00940032,-4.540765285,Europe/Paris,beginner,intermediate,UIP,Europe,audierne-la-jetee-brittany-south-france,TRUE,,,,,
Audreselles,"Audreselles, Normandy","France, Normandy",France,,Normandy,50.82158053,1.592041254,Europe/Paris,intermediate,advanced,CQF,Europe,audreselles-normandy-france,TRUE,,,,,
Augusta Rivermouth,"Augusta Rivermouth, WA, Margaret River South","Australia, WA, Margaret River South",Australia,WA,Margaret River South,-34.32458309,115.1795483,Australia/Sydney,intermediate,advanced,MQZ,Oceania,augusta-rivermouth-wa-margaret-river-south-australia,TRUE,Shire Of Augusta Margaret River,0,,,
Austinmer Beach,"Austinmer Beach, NSW, Coal Coast","Australia, NSW, Coal Coast",Australia,NSW,Coal Coast,-34.30673619,150.9357172,Australia/Sydney,beginner,intermediate,WOL,Oceania,austinmer-beach-nsw-coal-coast-australia,TRUE,Wollongong City Council,0,,,
Austinmer pools,"Austinmer pools, NSW, Coal Coast","Australia, NSW, Coal Coast",Australia,NSW,Coal Coast,-34.30785284,150.9358621,Australia/Sydney,beginner,intermediate,WOL,Oceania,austinmer-pools-nsw-coal-coast-australia,TRUE,,,,,
Avalanche,"Avalanche, South East Port Elizabeth","South Africa, South East Port Elizabeth",South Africa,,South East Port Elizabeth,-33.9824955,25.66951275,Africa/Johannesburg,intermediate,advanced,PLZ,Africa,avalanche-south-east-port-elizabeth-south-africa,TRUE,Gqeberha,0,,,
Avalanche,"Avalanche, California, San Diego County","USA, California, San Diego County",USA,California,San Diego County,32.75212726,-117.2552991,America/Los_Angeles,intermediate,advanced,SAN,North America,avalanche-california-san-diego-county-usa,TRUE,San Diego County,0,1517272,San Diego Country Estates,54.9
Avalanche,"Avalanche, North West, Oregon Central","USA, North West, Oregon Central",USA,North West,Oregon Central,44.67883064,-124.0790534,America/Los_Angeles,intermediate,advanced,ONP,North America,avalanche-north-west-oregon-central-usa,TRUE,Lincoln County,0,21462,Lincoln City,34.0
Avalanche Oahu,"Avalanche Oahu, Hawaii, Oahu","USA, Hawaii, Oahu",USA,Hawaii,Oahu,21.59526773,-158.1147261,America/Los_Angeles,advanced,advanced,HDH,North America,avalanche-oahu-hawaii-oahu-usa,TRUE,Honolulu County,0,23374,Honolulu,1.9
Avalon - 15th Street,"Avalon - 15th Street, North East, New Jersey","USA, North East, New Jersey",USA,North East,New Jersey,39.10260721,-74.70912337,America/Los_Angeles,beginner,intermediate,WWD,North America,avalon-15th-street-north-east-new-jersey-usa,TRUE,Avalon,0,20340,Avalon,0.8
Avalon - 30th Street,"Avalon - 30th Street, North East, New Jersey","USA, North East, New Jersey",USA,North East,New Jersey,39.09266554,-74.7185111,America/Los_Angeles,beginner,intermediate,WWD,North America,avalon-30th-street-north-east-new-jersey-usa,TRUE,Avalon,0,20340,Avalon,0.8
Avalon Point,"Avalon Point, WA, Perth South","Australia, WA, Perth South",Australia,WA,Perth South,-32.59239187,115.6380236,Australia/Sydney,intermediate,advanced,JAD,Oceania,avalon-point-wa-perth-south-australia,TRUE,,,,,
"Avatoru Pass, Rangiroa","Avatoru Pass, Rangiroa, Tuamotu Islands","French Polynesia, Tuamotu Islands",French Polynesia,,Tuamotu Islands,-14.93629501,-147.7100658,UTC,intermediate,intermediate,RGI,Other,avatoru-pass-rangiroa-tuamotu-islands-french-polynesia,TRUE,Rangiroa,0,,,
Avenida del mar,"Avenida del mar, Coquimbo","Chile, Coquimbo",Chile,,Coquimbo,-29.91854468,-71.2767005,UTC,beginner,intermediate,LSC,South America,avenida-del-mar-coquimbo-chile,TRUE,La Serena,0,4331,La Serena,2.5
Aventureiro,"Aventureiro, Rio de Janeiro Norte","Brazil, Rio de Janeiro Norte",Brazil,,Rio de Janeiro Norte,-23.18013237,-44.3044281,America/Sao_Paulo,intermediate,advanced,GDR,South America,aventureiro-rio-de-janeiro-norte-brazil,TRUE,,,,,
Aviño,"Aviño, Galicia","Spain, Galicia",Spain,,Galicia,43.29368057,-8.740257025,Europe/Madrid,beginner,intermediate,LCG,Europe,avino-galicia-spain,TRUE,,,,,
Aviones,Aviones,Puerto Rico,Puerto Rico,,,18.45270261,-65.95689297,UTC,intermediate,advanced,SJU,Other,aviones-puerto-rico,TRUE,Carolina,0,,,
Avoca Point,"Avoca Point, NSW, Central","Australia, NSW, Central",Australia,NSW,Central,-33.46962943,151.4376497,Australia/Sydney,beginner,intermediate,LBH,Oceania,avoca-point-nsw-central-australia,TRUE,Gosford,0,5303,Gosford,9.1
Axim,Axim,Ghana,Ghana,,,4.858150464,-2.245802879,UTC,beginner,intermediate,TKD,Other,axim-ghana,TRUE,,,,,
Ayampe,Ayampe,Ecuador,Ecuador,,,-1.67989499,-80.81577301,UTC,beginner,intermediate,SNC,Other,ayampe-ecuador,TRUE,,,,,
Aytré - lopette beach,"Aytré - lopette beach, Charente maritime","France, Charente maritime",France,,Charente maritime,46.13199905,-1.148790121,Europe/Paris,beginner,intermediate,LRH,Europe,aytre-lopette-beach-charente-maritime-france,TRUE,,,,,
Azako,"Azako, Kyushu, Tanegashima-Island","Japan, Kyushu, Tanegashima-Island",Japan,Kyushu,Tanegashima-Island,30.6824756,131.0630389,UTC,intermediate,advanced,TNE,Asia,azako-kyushu-tanegashima-island-japan,TRUE,Nishinoomote,0,1478354,Nisinoomote,8.3
Azurara,"Azurara, North Porto","Portugal, North Porto",Portugal,,North Porto,41.33893112,-8.744693398,Europe/Lisbon,beginner,intermediate,OPO,Europe,azurara-north-porto-portugal,TRUE,,,,,
B-point,B-point,East Timor,East Timor,,,-8.826972208,125.0524914,UTC,intermediate,advanced,MPT,Other,b-point-east-timor,TRUE,,,,,
Baby Haleiwa's,"Baby Haleiwa's, Hawaii, Oahu","USA, Hawaii, Oahu",USA,Hawaii,Oahu,21.28461586,-157.8495562,America/Los_Angeles,beginner,intermediate,HNL,North America,baby-haleiwa-s-hawaii-oahu-usa,TRUE,East Honolulu,0,,,
Baby Makapuu,"Baby Makapuu, Hawaii, Oahu","USA, Hawaii, Oahu",USA,Hawaii,Oahu,21.31582071,-157.6654467,America/Los_Angeles,beginner,intermediate,NGF,North America,baby-makapuu-hawaii-oahu-usa,TRUE,East Honolulu,0,,,
Baby Plage,Baby Plage,Switzerland,Switzerland,,,46.20879067,6.163432002,UTC,beginner,intermediate,GVA,Other,baby-plage-switzerland,TRUE,Geneva,0,11659,Geneva,1.5
Baby Point Side,Baby Point Side,Turkey,Turkey,,,36.77251122,31.3908577,UTC,beginner,intermediate,XXX,Other,baby-point-side-turkey,TRUE,,,,,
Back beach,"Back beach, WA, Perth North","Australia, WA, Perth North",Australia,WA,Perth North,-28.79413929,114.6117783,Australia/Sydney,beginner,intermediate,GET,Oceania,back-beach-wa-perth-north-australia,TRUE,Geraldton,0,5290,Geraldton,3.3
Back Beach,"Back Beach, New Zealand NI, West Coast Taranaki","New Zealand, New Zealand NI, West Coast Taranaki",New Zealand,New Zealand NI,West Coast Taranaki,-39.06826339,174.0150744,Pacific/Auckland,beginner,intermediate,NPL,Oceania,back-beach-new-zealand-ni-west-coast-taranaki-new-zealand,TRUE,New Plymouth,0,4609,New Plymouth,2.3
back beach,"back beach, North East and East","Ireland, North East and East",Ireland,,North East and East,53.48184027,-6.111381054,UTC,beginner,intermediate,DUB,Europe,back-beach-north-east-and-east-ireland,TRUE,,,,,
Back Bommie,"Back Bommie, NSW, Newcastle","Australia, NSW, Newcastle",Australia,NSW,Newcastle,-32.49542915,152.4077511,Australia/Sydney,intermediate,advanced,FOT,Oceania,back-bommie-nsw-newcastle-australia,TRUE,,,,,
Back Jimmys,"Back Jimmys, NSW, Mid North Coast","Australia, NSW, Mid North Coast",Australia,NSW,Mid North Coast,-32.68171886,152.1356678,Australia/Sydney,intermediate,advanced,NTL,Oceania,back-jimmys-nsw-mid-north-coast-australia,TRUE,Mid-Coast Council,0,,,
Backdoor,"Backdoor, NSW, Central","Australia, NSW, Central",Australia,NSW,Central,-33.27926093,151.5728492,Australia/Sydney,intermediate,advanced,BEO,Oceania,backdoor-nsw-central-australia,TRUE,,,,,
Backdoor,"Backdoor, Hawaii, Oahu","USA, Hawaii, Oahu",USA,Hawaii,Oahu,21.66767849,-158.0521059,America/Los_Angeles,intermediate,advanced,HDH,North America,backdoor-hawaii-oahu-usa,TRUE,Honolulu County,0,23374,Honolulu,1.9
Backdoor,"Backdoor, Rio de Janeiro Norte","Brazil, Rio de Janeiro Norte",Brazil,,Rio de Janeiro Norte,-22.93842147,-42.47231305,America/Sao_Paulo,intermediate,advanced,JMR,South America,backdoor-rio-de-janeiro-norte-brazil,TRUE,,,,,
Backdoor,"Backdoor, Sicily","Italy, Sicily",Italy,,Sicily,37.33319407,13.39381456,UTC,intermediate,advanced,PMO,Europe,backdoor-sicily-italy,TRUE,,,,,
Backdoor,"Backdoor, Bahia Sul","Brazil, Bahia Sul",Brazil,,Bahia Sul,-14.84060278,-39.00146484,America/Sao_Paulo,intermediate,advanced,IOS,South America,backdoor-bahia-sul-brazil,TRUE,,,,,
BackDoor (Haifa),BackDoor (Haifa),Israel,Israel,,,32.83551625,34.97952461,UTC,intermediate,advanced,HFA,Other,backdoor-haifa-israel,TRUE,Haifa,0,2972,Haifa,2.4
Backsides,"Backsides, NSW, North","Australia, NSW, North",Australia,NSW,North,-28.84347077,153.6078787,Australia/Sydney,intermediate,advanced,BNK,Oceania,backsides-nsw-north-australia,TRUE,Ballina Shire Council,0,,,
Backwash,"Backwash, Pacific South","Costa Rica, Pacific South",Costa Rica,,Pacific South,8.3914598,-83.27911377,UTC,intermediate,advanced,PJM,Central America,backwash-pacific-south-costa-rica,TRUE,,,,,
Backyard OG (ocean gallery),"Backyard OG (ocean gallery), South East, North Florida","USA, South East, North Florida",USA,South East,North Florida,29.81127346,-81.26104116,America/Los_Angeles,beginner,intermediate,UST,North America,backyard-og-ocean-gallery-south-east-north-florida-usa,TRUE,Saint Johns County,0,,,
Badesi,"Badesi, Sicily Sardinia","Italy, Sicily Sardinia",Italy,,Sicily Sardinia,40.98210113,8.853607178,UTC,beginner,intermediate,OLB,Europe,badesi-sicily-sardinia-italy,TRUE,,,,,
Badjang,"Badjang, Siargao Islands","Philippines, Siargao Islands",Philippines,,Siargao Islands,9.231147453,126.0583305,UTC,intermediate,advanced,TDG,Asia,badjang-siargao-islands-philippines,TRUE,,,,,
Bafureira,"Bafureira, Central Lisboa","Portugal, Central Lisboa",Portugal,,Central Lisboa,38.69222604,-9.366174638,Europe/Lisbon,beginner,intermediate,CAT,Europe,bafureira-central-lisboa-portugal,TRUE,Cascais,0,4744,Cascais,4.8
Bagasbas Beach,"Bagasbas Beach, Luzon","Philippines, Luzon",Philippines,,Luzon,14.13757443,122.9842186,UTC,beginner,intermediate,DTE,Asia,bagasbas-beach-luzon-philippines,TRUE,Daet,0,,,
Baggies,"Baggies, Durban","South Africa, Durban",South Africa,,Durban,-30.07894018,30.87256908,Africa/Johannesburg,intermediate,advanced,VIR,Africa,baggies-durban-south-africa,TRUE,,,,,
Baggies,"Baggies, Hibiscous Coast","South Africa, Hibiscous Coast",South Africa,,Hibiscous Coast,-30.07846205,30.87307334,Africa/Johannesburg,intermediate,advanced,VIR,Africa,baggies-hibiscous-coast-south-africa,TRUE,eThekwini Metropolitan Municipality,0,,,
bagni Fiume ( Livorno ),"bagni Fiume ( Livorno ), Mainland","Italy, Mainland",Italy,,Mainland,43.51961385,10.31268597,UTC,beginner,intermediate,PSA,Europe,bagni-fiume-livorno-mainland-italy,TRUE,,,,,
Bagni Roma,"Bagni Roma, Mainland","Italy, Mainland",Italy,,Mainland,43.49683002,10.32045364,UTC,beginner,intermediate,PSA,Europe,bagni-roma-mainland-italy,TRUE,,,,,
Bahar ic-Caghaq,Bahar ic-Caghaq,Malta,Malta,,,35.95192045,14.4453907,UTC,beginner,intermediate,MLA,Other,bahar-ic-caghaq-malta,TRUE,,,,,
"Bai Dai Beach, Nha Trang","Bai Dai Beach, Nha Trang",Vietnam,Vietnam,,,12.11603331,109.1961622,UTC,beginner,intermediate,CXR,Other,bai-dai-beach-nha-trang-vietnam,TRUE,,,,,
Baía,"Baía, Central Peniche","Portugal, Central Peniche",Portugal,,Central Peniche,39.36648756,-9.355802536,Europe/Lisbon,beginner,intermediate,LIS,Europe,baia-central-peniche-portugal,TRUE,,,,,
Baia das Quatro Ribeiras,"Baia das Quatro Ribeiras, Central group","Azores, Central group",Azores,,Central group,38.79376422,-27.18590498,UTC,beginner,intermediate,TER,Other,baia-das-quatro-ribeiras-central-group-azores,TRUE,Agualva,0,1521000,Agualva,3.0
Baia Formosa,"Baia Formosa, Rio Grande Do Norte","Brazil, Rio Grande Do Norte",Brazil,,Rio Grande Do Norte,-6.36699371,-35.01480103,America/Sao_Paulo,intermediate,advanced,NAT,South America,baia-formosa-rio-grande-do-norte-brazil,TRUE,,,,,
Baie des Trépassés,"Baie des Trépassés, Brittany South","France, Brittany South",France,,Brittany South,48.04779189,-4.706697464,Europe/Paris,beginner,intermediate,UIP,Europe,baie-des-trepasses-brittany-south-france,TRUE,Cléden-Cap-Sizun,0,1498646,Cleden,4.4
Bailey's Beach,"Bailey's Beach, North East, Southern New England","USA, North East, Southern New England",USA,North East,Southern New England,41.45568963,-71.31197691,America/Los_Angeles,beginner,intermediate,NPT,North America,bailey-s-beach-north-east-southern-new-england-usa,TRUE,Newport County,0,21919,Newport,1.8
Baileys cottage,"Baileys cottage, Cape Town","South Africa, Cape Town",South Africa,,Cape Town,-34.11233753,18.4666872,Africa/Johannesburg,intermediate,advanced,CPT,Africa,baileys-cottage-cape-town-south-africa,TRUE,,,,,
Baird Bay Reef,"Baird Bay Reef, SA, Eyre Peninsula","Australia, SA, Eyre Peninsula",Australia,SA,Eyre Peninsula,-33.1798013,134.3693161,Australia/Sydney,intermediate,advanced,KBY,Oceania,baird-bay-reef-sa-eyre-peninsula-australia,TRUE,,,,,
Baixa da Vila Nova,"Baixa da Vila Nova, Central group","Azores, Central group",Azores,,Central group,38.79128898,-27.12751865,UTC,beginner,intermediate,TER,Other,baixa-da-vila-nova-central-group-azores,TRUE,Praia da Vitória,0,1420652,Paia da Vitoria,8.3
Baja Malibu,"Baja Malibu, Baja Norte","Mexico, Baja Norte",Mexico,,Baja Norte,32.419503,-117.09575,America/Mexico_City,intermediate,advanced,NRS,North America,baja-malibu-baja-norte-mexico,TRUE,Delegación Plyas de Tijuana,0,,,
Bajamar,"Bajamar, Pacific South","Costa Rica, Pacific South",Costa Rica,,Pacific South,9.858852323,-84.70115662,UTC,beginner,intermediate,JAP,Central America,bajamar-pacific-south-costa-rica,TRUE,,,,,
Bajamar,"Bajamar, Tenerife","Canary, Tenerife",Canary,,Tenerife,28.5572,-16.34035,UTC,beginner,intermediate,TFN,Other,bajamar-tenerife-canary,TRUE,,,,,
Baker's beach,"Baker's beach, North East, Southern New England","USA, North East, Southern New England",USA,North East,Southern New England,41.50823021,-71.06903315,America/Los_Angeles,beginner,intermediate,NPT,North America,baker-s-beach-north-east-southern-new-england-usa,TRUE,Bristol County,0,21911,Bristol,24.9
Bakio,"Bakio, Pais Vasco","Spain, Pais Vasco",Spain,,Pais Vasco,43.43224471,-2.805011272,Europe/Madrid,intermediate,advanced,BIO,Europe,bakio-pais-vasco-spain,TRUE,,,,,
Balangan,"Balangan, Bali","Indonesia, Bali",Indonesia,,Bali,-8.792245549,115.1198101,Asia/Jakarta,intermediate,advanced,DPS,Asia,balangan-bali-indonesia,TRUE,Badung,0,,,
Balao,Balao,Ecuador,Ecuador,,,0.984536831,-79.67641354,UTC,intermediate,advanced,ESM,Other,balao-ecuador,TRUE,,,,,
Balconies,"Balconies, North","Peru, North",Peru,,North,-4.667585468,-81.32536054,UTC,intermediate,advanced,TYL,South America,balconies-north-peru,TRUE,Talara,0,12058,Talara,11.7
Bald Head Island- Point,"Bald Head Island- Point, South East, Southern North Carolina","USA, South East, Southern North Carolina",USA,South East,Southern North Carolina,33.85131433,-77.98885345,America/Los_Angeles,intermediate,advanced,ILM,North America,bald-head-island-point-south-east-southern-north-carolina-usa,TRUE,Bald Head Island,0,25168,Bald Head Island,1.3
Balding Bay,"Balding Bay, QLD, Far North West","Australia, QLD, Far North West",Australia,QLD,Far North West,-19.11020232,146.8693864,Australia/Sydney,beginner,intermediate,TSV,Oceania,balding-bay-qld-far-north-west-australia,TRUE,Townsville,0,5658,Townsville,17.2
Baldwin beach,"Baldwin beach, Hawaii, Maui","USA, Hawaii, Maui",USA,Hawaii,Maui,20.91470456,-156.3930416,America/Los_Angeles,beginner,intermediate,OGG,North America,baldwin-beach-hawaii-maui-usa,TRUE,Maui County,0,30429,Maui Island,37.0
Baleal,"Baleal, Central Peniche","Portugal, Central Peniche",Portugal,,Central Peniche,39.36721747,-9.342412949,Europe/Lisbon,beginner,intermediate,LIS,Europe,baleal-central-peniche-portugal,TRUE,,,,,
Baleal Sul,"Baleal Sul, Central Peniche","Portugal, Central Peniche",Portugal,,Central Peniche,39.36147749,-9.355630875,Europe/Lisbon,beginner,intermediate,LIS,Europe,baleal-sul-central-peniche-portugal,TRUE,,,,,
Baleia,"Baleia, Sao Paulo North Coast","Brazil, Sao Paulo North Coast",Brazil,,Sao Paulo North Coast,-23.7776,-45.67021667,America/Sao_Paulo,beginner,intermediate,SJK,South America,baleia-sao-paulo-north-coast-brazil,TRUE,,,,,
Baler,"Baler, Luzon","Philippines, Luzon",Philippines,,Luzon,15.75392773,121.5678406,UTC,beginner,intermediate,BQA,Asia,baler-luzon-philippines,TRUE,Baler,0,,,
Bali Bay,"Bali Bay, Cape Town","South Africa, Cape Town",South Africa,,Cape Town,-33.97281562,18.37050319,Africa/Johannesburg,intermediate,advanced,CPT,Africa,bali-bay-cape-town-south-africa,TRUE,Cape Town,0,678,Cape Town,17.1
Bali Tropic,"Bali Tropic, Bali","Indonesia, Bali",Indonesia,,Bali,-8.784823541,115.2316475,Asia/Jakarta,beginner,intermediate,DPS,Asia,bali-tropic-bali-indonesia,TRUE,Badung,0,,,
Balian,"Balian, Bali","Indonesia, Bali",Indonesia,,Bali,-8.524281466,114.9897122,Asia/Jakarta,intermediate,advanced,DPS,Asia,balian-bali-indonesia,TRUE,Tabanan,0,23541,Tabanan,15.0
Ball Bay,"Ball Bay, Norfolk Island","Australia, Norfolk Island",Australia,,Norfolk Island,-29.05144281,167.9855919,Australia/Sydney,beginner,intermediate,NLK,Oceania,ball-bay-norfolk-island-australia,TRUE,,,,,
Ballenas,Ballenas,Puerto Rico,Puerto Rico,,,17.95554591,-66.8572998,UTC,beginner,intermediate,PSE,Other,ballenas-puerto-rico,TRUE,,,,,
Ballina North Wall,"Ballina North Wall, NSW, North","Australia, NSW, North",Australia,NSW,North,-28.87399043,153.5924292,Australia/Sydney,intermediate,advanced,BNK,Oceania,ballina-north-wall-nsw-north-australia,TRUE,,,,,
Ballinskelligs,"Ballinskelligs, South West","Ireland, South West",Ireland,,South West,51.84158462,-10.21711349,UTC,intermediate,advanced,BYT,Europe,ballinskelligs-south-west-ireland,TRUE,,,,,
Ballito - Surfers Point,"Ballito - Surfers Point, East Coast North","South Africa, East Coast North",South Africa,,East Coast North,-29.53916667,31.221,Africa/Johannesburg,intermediate,advanced,DUR,Africa,ballito-surfers-point-east-coast-north-south-africa,TRUE,KwaDukuza Local Municipality,0,,,
Ballston Beach,"Ballston Beach, North East, Southern New England","USA, North East, Southern New England",USA,North East,Southern New England,42.00082745,-70.02114773,America/Los_Angeles,beginner,intermediate,PVC,North America,ballston-beach-north-east-southern-new-england-usa,TRUE,Truro,0,,,
Ballybunion,"Ballybunion, South West","Ireland, South West",Ireland,,South West,52.5138247,-9.677077532,UTC,beginner,intermediate,KIR,Europe,ballybunion-south-west-ireland,TRUE,,,,,
ballyheigue ireland southwest,"ballyheigue ireland southwest, South West","Ireland, South West",Ireland,,South West,52.38760458,-9.836540222,UTC,beginner,intermediate,KIR,Europe,ballyheigue-ireland-southwest-south-west-ireland,TRUE,County Kerry,0,5984,Kerry,25.3
Ballyheirnan Bay,"Ballyheirnan Bay, North West","Ireland, North West",Ireland,,North West,55.24898925,-7.702789307,UTC,beginner,intermediate,LDY,Europe,ballyheirnan-bay-north-west-ireland,TRUE,,,,,
Balmoral point,"Balmoral point, NSW, Sydney North","Australia, NSW, Sydney North",Australia,NSW,Sydney North,-33.82197709,151.2525558,Australia/Sydney,intermediate,advanced,RSE,Oceania,balmoral-point-nsw-sydney-north-australia,TRUE,Sydney,0,5630,Sydney,6.6
Balnarring Point,"Balnarring Point, VIC, Melbourne East","Australia, VIC, Melbourne East",Australia,VIC,Melbourne East,-38.39047981,145.1247597,Australia/Sydney,beginner,intermediate,MBW,Oceania,balnarring-point-vic-melbourne-east-australia,TRUE,Melbourne,0,5436,Melbourne,65.6
Balneário Camboriú,"Balneário Camboriú, Santa Catarina North","Brazil, Santa Catarina North",Brazil,,Santa Catarina North,-26.98771237,-48.62995148,America/Sao_Paulo,intermediate,advanced,NVT,South America,balneario-camboriu-santa-catarina-north-brazil,TRUE,Balneário Camboriú,0,6318,Balneario Camboriu,0.6
Balneário Costa azul,Balneário Costa azul,Brazil,Brazil,,,-25.73323964,-48.48917641,America/Sao_Paulo,beginner,intermediate,PNG,South America,balneario-costa-azul-brazil,TRUE,Matinhos,0,1473933,Matinhos,12.1
Bamboo Island,Bamboo Island,Cambodia,Cambodia,,,10.49473234,103.5597038,UTC,beginner,intermediate,KOS,Other,bamboo-island-cambodia,TRUE,Ream Quarter,0,5849,Sihanoukville,13.7
Bambra Reef,"Bambra Reef, TAS, Hobart","Australia, TAS, Hobart",Australia,TAS,Hobart,-42.89421002,147.5013256,Australia/Sydney,intermediate,advanced,HBA,Oceania,bambra-reef-tas-hobart-australia,TRUE,Hobart,0,5327,Hobart,14.1
Bamburgh,"Bamburgh, Borders and NE England","UK, Borders and NE England",UK,,Borders and NE England,55.61205645,-1.716619134,Europe/London,beginner,intermediate,NCL,Europe,bamburgh-borders-and-ne-england-uk,TRUE,Northumberland,0,,,
Banana Beach,"Banana Beach, South","Morocco, South",Morocco,,South,30.49930887,-9.677195549,Africa/Casablanca,beginner,intermediate,AGA,Africa,banana-beach-south-morocco,TRUE,Aourir,0,1511442,Aourir,5.1
Banana Beach,"Banana Beach, Hibiscous Coast","South Africa, Hibiscous Coast",South Africa,,Hibiscous Coast,-30.66405571,30.51624298,Africa/Johannesburg,beginner,intermediate,MGH,Africa,banana-beach-hibiscous-coast-south-africa,TRUE,,,,,
Banana Island,"Banana Island, Sumatra Mainland","Indonesia, Sumatra Mainland",Indonesia,,Sumatra Mainland,-5.123088398,103.846035,Asia/Jakarta,intermediate,advanced,TFY,Asia,banana-island-sumatra-mainland-indonesia,TRUE,Pesisir Barat,0,,,
Banana Point,"Banana Point, South","Morocco, South",Morocco,,South,30.50211911,-9.684813023,Africa/Casablanca,intermediate,advanced,AGA,Africa,banana-point-south-morocco,TRUE,,,,,
Bananier,Bananier,Guadeloupe,Guadeloupe,,,15.9996619,-61.60213888,UTC,beginner,intermediate,LSS,Other,bananier-guadeloupe,TRUE,,,,,
Banc de Pabos,"Banc de Pabos, East Coast","Canada, East Coast",Canada,,East Coast,48.37201656,-64.58748043,UTC,beginner,intermediate,YGP,North America,banc-de-pabos-east-coast-canada,TRUE,Le Rocher-Percé,0,,,
Bancoora,"Bancoora, VIC, Melbourne West","Australia, VIC, Melbourne West",Australia,VIC,Melbourne West,-38.29226073,144.4078803,Australia/Sydney,beginner,intermediate,AVV,Oceania,bancoora-vic-melbourne-west-australia,TRUE,Geelong,0,5286,Geelong,17.7
Bandar al Saqlah,Bandar al Saqlah,Oman,Oman,,,21.5092962,59.3838501,UTC,intermediate,advanced,MSH,Other,bandar-al-saqlah-oman,TRUE,,,,,
bandol,"bandol, Mediterranean","France, Mediterranean",France,,Mediterranean,43.13284193,5.747952461,Europe/Paris,beginner,intermediate,CTT,Europe,bandol-mediterranean-france,TRUE,,,,,
Bandon Beaches,"Bandon Beaches, North West, Oregon South","USA, North West, Oregon South",USA,North West,Oregon South,43.09270997,-124.4346714,America/Los_Angeles,beginner,intermediate,BDY,North America,bandon-beaches-north-west-oregon-south-usa,TRUE,Coos County,0,21430,Coos Bay,35.1
Bandy Creek Groyne,"Bandy Creek Groyne, WA, Fitzgerald River","Australia, WA, Fitzgerald River",Australia,WA,Fitzgerald River,-33.83491809,121.9291019,Australia/Sydney,beginner,intermediate,EPR,Oceania,bandy-creek-groyne-wa-fitzgerald-river-australia,TRUE,Shire Of Esperance,0,,,
Bang Niang Rivermouth,Bang Niang Rivermouth,Thailand,Thailand,,,8.67432415,98.24087262,UTC,beginner,intermediate,HKT,Asia,bang-niang-rivermouth-thailand,TRUE,Khuekkhak,0,24072,Patong,86.5
Bankvaults,"Bankvaults, Mentawai","Indonesia, Mentawai",Indonesia,,Mentawai,-1.852075298,99.24473763,Asia/Jakarta,advanced,advanced,RKI,Asia,bankvaults-mentawai-indonesia,TRUE,,,,,
Banna Strand - Sandy Lane,"Banna Strand - Sandy Lane, South West","Ireland, South West",Ireland,,South West,52.34631201,-9.835381508,UTC,beginner,intermediate,KIR,Europe,banna-strand-sandy-lane-south-west-ireland,TRUE,County Kerry,0,5984,Kerry,25.3
Bannister Head Suck Rock,"Bannister Head Suck Rock, NSW, South Coast","Australia, NSW, South Coast",Australia,NSW,South Coast,-35.32119188,150.4846179,Australia/Sydney,intermediate,advanced,NOA,Oceania,bannister-head-suck-rock-nsw-south-coast-australia,TRUE,,,,,
Bannisters point,"Bannisters point, NSW, South Coast","Australia, NSW, South Coast",Australia,NSW,South Coast,-35.32534988,150.4815388,Australia/Sydney,intermediate,advanced,NOA,Oceania,bannisters-point-nsw-south-coast-australia,TRUE,,,,,
Bantham,"Bantham, Devon South","UK, Devon South",UK,,Devon South,50.27828122,-3.8851583,Europe/London,beginner,intermediate,EXT,Europe,bantham-devon-south-uk,TRUE,,,,,
Bantham Rivermouth,"Bantham Rivermouth, Devon South","UK, Devon South",UK,,Devon South,50.27801382,-3.886928558,Europe/London,beginner,intermediate,EXT,Europe,bantham-rivermouth-devon-south-uk,TRUE,,,,,
Banyaks,"Banyaks, Sumatra Islands","Indonesia, Sumatra Islands",Indonesia,,Sumatra Islands,2.196727242,97.29492188,Asia/Jakarta,intermediate,advanced,TPK,Asia,banyaks-sumatra-islands-indonesia,TRUE,Pulau Banyak Barat,0,,,
Banyons,"Banyons, Hawaii, Hawaii Island","USA, Hawaii, Hawaii Island",USA,Hawaii,Hawaii Island,19.60661653,-155.9771115,America/Los_Angeles,beginner,intermediate,KOA,North America,banyons-hawaii-hawaii-island-usa,TRUE,Hawaiʻi County,0,30426,Hawaii Island,51.3
Banzai,"Banzai, NSW, Central","Australia, NSW, Central",Australia,NSW,Central,-33.41711423,151.4639032,Australia/Sydney,intermediate,advanced,GOS,Oceania,banzai-nsw-central-australia,TRUE,Gosford,0,5303,Gosford,9.1
Banzai ( S. Marinella ),"Banzai ( S. Marinella ), Mainland","Italy, Mainland",Italy,,Mainland,42.02836811,11.83935642,UTC,beginner,intermediate,FCO,Europe,banzai-s-marinella-mainland-italy,TRUE,,,,,
banzart,banzart,Tunisia,Tunisia,,,37.31720577,9.872245789,UTC,beginner,intermediate,TUN,Other,banzart-tunisia,TRUE,Bizerte,0,6807,Bizerte,4.8
Baobab,Baobab,Senegal,Senegal,,,14.47197774,-17.07052231,UTC,beginner,intermediate,DSS,Other,baobab-senegal,TRUE,La Somone,0,12281,La Somone,1.8
Bar,Bar,Montenegro,Montenegro,,,42.1057331,19.08535652,UTC,intermediate,advanced,TGD,Other,bar-montenegro,TRUE,,,,,
Bar Beach,"Bar Beach, NSW, Newcastle","Australia, NSW, Newcastle",Australia,NSW,Newcastle,-32.942033,151.7678726,Australia/Sydney,beginner,intermediate,NTL,Oceania,bar-beach-nsw-newcastle-australia,TRUE,Newcastle,0,5498,Newcastle,1.8
Bar Beach,"Bar Beach, NSW, Far South","Australia, NSW, Far South",Australia,NSW,Far South,-36.20841622,150.1331091,Australia/Sydney,beginner,intermediate,MYA,Oceania,bar-beach-nsw-far-south-australia,TRUE,,,,,
Bar Reef,"Bar Reef, NSW, Newcastle","Australia, NSW, Newcastle",Australia,NSW,Newcastle,-32.94234814,151.7697716,Australia/Sydney,intermediate,advanced,NTL,Oceania,bar-reef-nsw-newcastle-australia,TRUE,Newcastle,0,5498,Newcastle,1.8
Barbarons,"Barbarons, Mahe","Seychelles, Mahe",Seychelles,,Mahe,-4.687020189,55.45595884,UTC,beginner,intermediate,SEZ,Other,barbarons-mahe-seychelles,TRUE,Victoria,0,23485,Victoria,17.7
Barbate,"Barbate, Andalucia","Spain, Andalucia",Spain,,Andalucia,36.18607673,-5.946800709,Europe/Madrid,beginner,intermediate,TNG,Europe,barbate-andalucia-spain,TRUE,,,,,
Barber's Point - Coast Guard Jetty,"Barber's Point - Coast Guard Jetty, Hawaii, Oahu","USA, Hawaii, Oahu",USA,Hawaii,Oahu,21.29619194,-158.0733705,America/Los_Angeles,beginner,intermediate,JRF,North America,barber-s-point-coast-guard-jetty-hawaii-oahu-usa,TRUE,Kapolei,0,23377,Kapolei,6.4
Barceloneta,"Barceloneta, Mediterranean","Spain, Mediterranean",Spain,,Mediterranean,41.37885341,2.192673683,Europe/Madrid,beginner,intermediate,BCN,Europe,barceloneta-mediterranean-spain,TRUE,Barcelona,0,3196,Barcelona,2.1
Barley Cove,"Barley Cove, South West","Ireland, South West",Ireland,,South West,51.46866272,-9.775251746,UTC,beginner,intermediate,BYT,Europe,barley-cove-south-west-ireland,TRUE,,,,,
Barn's Beach,Barn's Beach,Liberia,Liberia,,,6.23220012,-10.68214417,UTC,beginner,intermediate,MLW,Other,barn-s-beach-liberia,TRUE,Monrovia,0,24200,Monrovia,2.9
Barra,Barra,Mozambique,Mozambique,,,-23.78942885,35.51708221,UTC,intermediate,advanced,INH,Other,barra-mozambique,TRUE,,,,,
Barra da Kwanza,Barra da Kwanza,Angola,Angola,,,-9.359981568,13.15200806,UTC,intermediate,advanced,NBJ,Other,barra-da-kwanza-angola,TRUE,,,,,
Barra da Lagoa,"Barra da Lagoa, Florianopolis","Brazil, Florianopolis",Brazil,,Florianopolis,-27.5728177,-48.42437625,America/Sao_Paulo,beginner,intermediate,FLN,South America,barra-da-lagoa-florianopolis-brazil,TRUE,,,,,
Barra da Tijuca - Posto 8,"Barra da Tijuca - Posto 8, Rio de Janeiro City","Brazil, Rio de Janeiro City",Brazil,,Rio de Janeiro City,-23.01085735,-43.36187437,America/Sao_Paulo,intermediate,advanced,RRJ,South America,barra-da-tijuca-posto-8-rio-de-janeiro-city-brazil,TRUE,Rio de Janeiro,0,6456,Rio De Janeiro,19.9
Barra de coyuca,"Barra de coyuca, Guerrero","Mexico, Guerrero",Mexico,,Guerrero,16.91699213,-100.0109053,America/Mexico_City,beginner,intermediate,ACA,North America,barra-de-coyuca-guerrero-mexico,TRUE,Acapulco,0,4356,Acapulco,14.2
Barra de Guaratiba,"Barra de Guaratiba, Rio de Janeiro City","Brazil, Rio de Janeiro City",Brazil,,Rio de Janeiro City,-23.06401764,-43.56937408,America/Sao_Paulo,intermediate,advanced,SNZ,South America,barra-de-guaratiba-rio-de-janeiro-city-brazil,TRUE,,,,,
barra de Itajuba,"barra de Itajuba, Santa Catarina North","Brazil, Santa Catarina North",Brazil,,Santa Catarina North,-26.69134506,-48.68416429,America/Sao_Paulo,beginner,intermediate,NVT,South America,barra-de-itajuba-santa-catarina-north-brazil,TRUE,,,,,
Barra de Navidad,"Barra de Navidad, Jalisco","Mexico, Jalisco",Mexico,,Jalisco,19.20467271,-104.6926689,America/Mexico_City,beginner,intermediate,ZLO,North America,barra-de-navidad-jalisco-mexico,TRUE,,,,,
Barra de Santiago,Barra de Santiago,El Salvador,El Salvador,,,13.70595465,-90.03935874,UTC,beginner,intermediate,GSJ,Other,barra-de-santiago-el-salvador,TRUE,Ahuachapán Sur,0,8697,El Ahuachapan,31.8
Barra do sai mirim,"Barra do sai mirim, Santa Catarina North","Brazil, Santa Catarina North",Brazil,,Santa Catarina North,-26.00783155,-48.60406145,America/Sao_Paulo,beginner,intermediate,JOI,South America,barra-do-sai-mirim-santa-catarina-north-brazil,TRUE,Itapoá,0,1474951,Itapoa,12.2
Barra Sol,"Barra Sol, Espirito Santo","Brazil, Espirito Santo",Brazil,,Espirito Santo,-20.38426153,-40.3100878,America/Sao_Paulo,beginner,intermediate,VIX,South America,barra-sol-espirito-santo-brazil,TRUE,Vila Velha,0,6496,Vila Velha,6.3
Barra Vieja,"Barra Vieja, Guerrero","Mexico, Guerrero",Mexico,,Guerrero,16.68824145,-99.62981701,America/Mexico_City,beginner,intermediate,ACA,North America,barra-vieja-guerrero-mexico,TRUE,,,,,
Barrack Point,"Barrack Point, NSW, South Coast","Australia, NSW, South Coast",Australia,NSW,South Coast,-34.56060314,150.8747292,Australia/Sydney,intermediate,advanced,WOL,Oceania,barrack-point-nsw-south-coast-australia,TRUE,Shellharbour City Council,0,,,
Barrañán,"Barrañán, Galicia","Spain, Galicia",Spain,,Galicia,43.31187664,-8.548650742,Europe/Madrid,beginner,intermediate,LCG,Europe,barranan-galicia-spain,TRUE,,,,,
Barranco da Belharucas,"Barranco da Belharucas, South","Portugal, South",Portugal,,South,37.0912839,-8.182969093,Europe/Lisbon,beginner,intermediate,FAO,Europe,barranco-da-belharucas-south-portugal,TRUE,Albufeira,0,4678,Albufeira,6.0
Barrancon,"Barrancon, Tarapaca","Chile, Tarapaca",Chile,,Tarapaca,-21.82617586,-70.14403582,UTC,intermediate,advanced,TOQ,South America,barrancon-tarapaca-chile,TRUE,,,,,
Barranquito,"Barranquito, Lima","Peru, Lima",Peru,,Lima,-12.14520922,-77.02647686,UTC,intermediate,advanced,LIM,South America,barranquito-lima-peru,TRUE,Lima,0,12048,Lima,12.9
Barravento,"Barravento, Bahia North Coast","Brazil, Bahia North Coast",Brazil,,Bahia North Coast,-13.00976362,-38.52697134,America/Sao_Paulo,intermediate,advanced,SSA,South America,barravento-bahia-north-coast-brazil,TRUE,Salvador,0,6458,Salvador,4.6
Barre d'étel,"Barre d'étel, Brittany South","France, Brittany South",France,,Brittany South,47.63821266,-3.209209442,Europe/Paris,beginner,intermediate,LRT,Europe,barre-d-etel-brittany-south-france,TRUE,,,,,
Barrigona,"Barrigona, Guanacaste","Costa Rica, Guanacaste",Costa Rica,,Guanacaste,9.881728689,-85.57770252,UTC,beginner,intermediate,PLD,Central America,barrigona-guanacaste-costa-rica,TRUE,,,,,
Barrinha,"Barrinha, Santa Catarina North","Brazil, Santa Catarina North",Brazil,,Santa Catarina North,-26.62390507,-48.67999077,America/Sao_Paulo,beginner,intermediate,NVT,South America,barrinha-santa-catarina-north-brazil,TRUE,Barra Velha,0,1502466,Itinga II,6.5
Barrinha,"Barrinha, Santa Catarina","Brazil, Santa Catarina",Brazil,,Santa Catarina,-28.08538426,-48.63089561,America/Sao_Paulo,beginner,intermediate,FLN,South America,barrinha-santa-catarina-brazil,TRUE,,,,,
Barrinha,"Barrinha, Parana","Brazil, Parana",Brazil,,Parana,-25.97669944,-48.59072685,America/Sao_Paulo,beginner,intermediate,JOI,South America,barrinha-parana-brazil,TRUE,Guaratuba,0,1495985,Guaratuba,10.6
Barrote-Jacaraipe,"Barrote-Jacaraipe, Espirito Santo","Brazil, Espirito Santo",Brazil,,Espirito Santo,-20.15110123,-40.18346071,America/Sao_Paulo,beginner,intermediate,VIX,South America,barrote-jacaraipe-espirito-santo-brazil,TRUE,,,,,
Barrtrá,"Barrtrá, West","Ireland, West",Ireland,,West,52.91682108,-9.366703033,UTC,beginner,intermediate,INQ,Europe,barrtra-west-ireland,TRUE,,,,,
Bartletts Beach,"Bartletts Beach, NSW, Mid North Coast","Australia, NSW, Mid North Coast",Australia,NSW,Mid North Coast,-31.59415976,152.8425948,Australia/Sydney,beginner,intermediate,PQQ,Oceania,bartletts-beach-nsw-mid-north-coast-australia,TRUE,Port Macquarie-Hastings Council,0,,,
Bashams bommie,"Bashams bommie, SA, York Peninsula","Australia, SA, York Peninsula",Australia,SA,York Peninsula,-35.52167848,138.7003326,Australia/Sydney,intermediate,advanced,ADL,Oceania,bashams-bommie-sa-york-peninsula-australia,TRUE,,,,,
BashienDong,BashienDong,Taiwan,Taiwan,,,23.39683734,121.4811945,UTC,beginner,intermediate,HUN,Other,bashiendong-taiwan,TRUE,,,,,
Baslicon,"Baslicon, South West","Ireland, South West",Ireland,,South West,51.80758665,-10.17859697,UTC,beginner,intermediate,BYT,Europe,baslicon-south-west-ireland,TRUE,,,,,
Bassa Trinita,"Bassa Trinita, Sicily Sardinia","Italy, Sicily Sardinia",Italy,,Sicily Sardinia,41.24261842,9.400466681,UTC,intermediate,advanced,FSC,Europe,bassa-trinita-sicily-sardinia-italy,TRUE,,,,,
BASSE POINTE LE CHAUDRON,BASSE POINTE LE CHAUDRON,Martinique,Martinique,,,14.86997649,-61.11659802,UTC,intermediate,advanced,FDF,Other,basse-pointe-le-chaudron-martinique,TRUE,,,,,
Bastiagueiro,"Bastiagueiro, Galicia","Spain, Galicia",Spain,,Galicia,43.34331361,-8.363556862,Europe/Madrid,beginner,intermediate,LCG,Europe,bastiagueiro-galicia-spain,TRUE,,,,,
Baterias,"Baterias, North","Peru, North",Peru,,North,-4.45731971,-81.29925728,UTC,beginner,intermediate,TYL,South America,baterias-north-peru,TRUE,Talara,0,12058,Talara,11.7
"Bates Island, Ottawa River","Bates Island, Ottawa River",Canada,Canada,,,45.40974908,-75.75686932,UTC,intermediate,intermediate,YRO,North America,bates-island-ottawa-river-canada,TRUE,Ottawa,0,21357,Ottawa,4.9
Batroun,Batroun,Lebanon,Lebanon,,,34.24363021,35.65865993,UTC,beginner,intermediate,BEY,Other,batroun-lebanon,TRUE,,,,,
Battery,"Battery, Cape Town","South Africa, Cape Town",South Africa,,Cape Town,-34.14626312,18.31712723,Africa/Johannesburg,intermediate,advanced,CPT,Africa,battery-cape-town-south-africa,TRUE,,,,,
Batts Rock,Batts Rock,Barbados,Barbados,,,13.13504254,-59.63634789,UTC,beginner,intermediate,BGI,Other,batts-rock-barbados,TRUE,Saint Michael,0,1483921,Husbands,2.7
Batu Karas,"Batu Karas, West Java","Indonesia, West Java",Indonesia,,West Java,-7.748243911,108.5021782,Asia/Jakarta,beginner,intermediate,CJN,Asia,batu-karas-west-java-indonesia,TRUE,,,,,
Baubigny,"Baubigny, Normandy","France, Normandy",France,,Normandy,49.4293145,-1.823730469,Europe/Paris,beginner,intermediate,CER,Europe,baubigny-normandy-france,TRUE,,,,,
Baul,"Baul, Tarapaca","Chile, Tarapaca",Chile,,Tarapaca,-20.27572881,-70.13303876,UTC,intermediate,advanced,IQQ,South America,baul-tarapaca-chile,TRUE,,,,,
Bawa,"Bawa, Sumatra Islands","Indonesia, Sumatra Islands",Indonesia,,Sumatra Islands,0.812531892,97.34719276,Asia/Jakarta,intermediate,advanced,GNS,Asia,bawa-sumatra-islands-indonesia,TRUE,West Nias,0,,,
Bawley Point,"Bawley Point, NSW, South Coast","Australia, NSW, South Coast",Australia,NSW,South Coast,-35.50707699,150.4011154,Australia/Sydney,beginner,intermediate,MYA,Oceania,bawley-point-nsw-south-coast-australia,TRUE,Shoalhaven City Council,0,,,
Bay (left wall),"Bay (left wall), WA, Perth South","Australia, WA, Perth South",Australia,WA,Perth South,-33.30411601,115.6457698,Australia/Sydney,intermediate,advanced,BUY,Oceania,bay-left-wall-wa-perth-south-australia,TRUE,Bunbury,0,5143,Bunbury,3.4
Bay Break,"Bay Break, West","Ireland, West",Ireland,,West,54.27920743,-8.605899811,UTC,intermediate,advanced,SXL,Europe,bay-break-west-ireland,TRUE,County Sligo,0,6063,Westport,79.8
Bay Head,"Bay Head, North East, New Jersey","USA, North East, New Jersey",USA,North East,New Jersey,40.07698778,-74.03950453,America/Los_Angeles,beginner,intermediate,BLM,North America,bay-head-north-east-new-jersey-usa,TRUE,Point Pleasant Beach,0,1506773,Point Pleasant Beach,1.7
Bay of Heist,Bay of Heist,Belgium,Belgium,,,51.34449584,3.231408381,UTC,beginner,intermediate,OST,Europe,bay-of-heist-belgium,TRUE,Knokke-Heist,0,2387,Knokke-Heist,7.1
Bay of Plenty,"Bay of Plenty, Sumatra Islands","Indonesia, Sumatra Islands",Indonesia,,Sumatra Islands,2.055890325,97.31861115,Asia/Jakarta,intermediate,advanced,GNS,Asia,bay-of-plenty-sumatra-islands-indonesia,TRUE,,,,,
"Bay Point, Marblehead","Bay Point, Marblehead, Inland","USA, Inland",USA,,Inland,41.5168393,-82.71988392,America/Los_Angeles,beginner,intermediate,TDZ,North America,bay-point-marblehead-inland-usa,TRUE,Marblehead,0,21060,Marblehead,2.9
"Bay Street, Santa Monica","Bay Street, Santa Monica, California, LA County","USA, California, LA County",USA,California,LA County,34.00443129,-118.4929776,America/Los_Angeles,beginner,intermediate,SMO,North America,bay-street-santa-monica-california-la-county-usa,TRUE,Santa Monica,0,17395,Santa Monica,1.7
Bay Waves,"Bay Waves, NSW, Sydney South","Australia, NSW, Sydney South",Australia,NSW,Sydney South,-34.06531654,151.1478424,Australia/Sydney,beginner,intermediate,SYD,Oceania,bay-waves-nsw-sydney-south-australia,TRUE,Sydney,0,5630,Sydney,6.6
Bayfront,"Bayfront, Hawaii, Hawaii Island","USA, Hawaii, Hawaii Island",USA,Hawaii,Hawaii Island,19.72489788,-155.0773323,America/Los_Angeles,beginner,intermediate,ITO,North America,bayfront-hawaii-hawaii-island-usa,TRUE,Hilo,0,24981,Hilo,6.5
Beach Club,"Beach Club, South East, North Florida","USA, South East, North Florida",USA,South East,North Florida,28.97676853,-80.85566282,America/Los_Angeles,beginner,intermediate,DAB,North America,beach-club-south-east-north-florida-usa,TRUE,Volusia County,0,,,
Beachouse,Beachouse,Fiji,Fiji,,,-18.23163397,177.7711916,UTC,beginner,intermediate,KVU,Oceania,beachouse-fiji,TRUE,Nadroga-Navosa,0,25229,Sigatoka,27.7
Beachport,"Beachport, SA, East","Australia, SA, East",Australia,SA,East,-37.4803711,140.0167018,Australia/Sydney,beginner,intermediate,MLR,Oceania,beachport-sa-east-australia,TRUE,,,,,
Beacon point,"Beacon point, South East, North Florida","USA, South East, North Florida",USA,South East,North Florida,29.91670345,-81.28835678,America/Los_Angeles,beginner,intermediate,UST,North America,beacon-point-south-east-north-florida-usa,TRUE,Saint Johns County,0,,,
Beacons,"Beacons, California, San Diego County","USA, California, San Diego County",USA,California,San Diego County,33.06510207,-117.3047376,America/Los_Angeles,intermediate,advanced,CLD,North America,beacons-california-san-diego-county-usa,TRUE,Encinitas,0,17118,Encinitas,3.3
Beacons,Beacons,Maldives,Maldives,,,0.211724086,73.14136147,UTC,intermediate,advanced,FMT,Asia,beacons-maldives,TRUE,,,,,
Bears Beach,"Bears Beach, NSW, Far South","Australia, NSW, Far South",Australia,NSW,Far South,-36.43561225,150.0765038,Australia/Sydney,beginner,intermediate,MIM,Oceania,bears-beach-nsw-far-south-australia,TRUE,,,,,
